__time,/uav/cv/swing_angle/cartesian/header/stamp/nanosec,/uav/cv/swing_angle/cartesian/header/stamp/sec,/uav/cv/swing_angle/cartesian/vector/x,/uav/cv/swing_angle/cartesian/vector/y,/uav/cv/swing_angle/cartesian/vector/z,/uav/cv/swing_angle/polar/header/stamp/nanosec,/uav/cv/swing_angle/polar/header/stamp/sec,/uav/cv/swing_angle/polar/vector/x,/uav/cv/swing_angle/polar/vector/y,/uav/cv/swing_angle/polar/vector/z,/uav/truth/swing_angle/cartesian/header/stamp/nanosec,/uav/truth/swing_angle/cartesian/header/stamp/sec,/uav/truth/swing_angle/cartesian/vector/x,/uav/truth/swing_angle/cartesian/vector/y,/uav/truth/swing_angle/cartesian/vector/z,/uav/truth/swing_angle/polar/header/stamp/nanosec,/uav/truth/swing_angle/polar/header/stamp/sec,/uav/truth/swing_angle/polar/vector/x,/uav/truth/swing_angle/polar/vector/y,/uav/truth/swing_angle/polar/vector/z
1775895826.563883,,,,,,,,,,,835000000.000000000,422.000000000,13.161457848,30.892862599,0.998774255,,,,,
1775895826.563967,,,,,,,,,,,,,,,,835000000.000000000,422.000000000,32.716297393,68.653159194,0.998774255
1775895826.568634,,,,,,,,,,,840000000.000000000,422.000000000,13.389112374,31.433108924,0.998754537,,,,,
1775895826.568698,,,,,,,,,,,,,,,,840000000.000000000,422.000000000,33.261339700,68.721370290,0.998754537
1775895826.573336,,,,,,,,,,,845000000.000000000,422.000000000,13.617909042,31.974042143,0.998734240,,,,,
1775895826.573395,,,,,,,,,,,,,,,,845000000.000000000,422.000000000,33.806236054,68.789646990,0.998734240
1775895826.578433,,,,,,,,,,,850000000.000000000,422.000000000,13.847909708,32.515465795,0.998713377,,,,,
1775895826.578470,,,,,,,,,,,,,,,,850000000.000000000,422.000000000,34.350817282,68.857846810,0.998713377
1775895826.583434,,,,,,,,,,,855000000.000000000,422.000000000,14.079167836,33.057331097,0.998691976,,,,,
1775895826.583466,,,,,,,,,,,,,,,,855000000.000000000,422.000000000,34.895044202,68.925956607,0.998691976
1775895826.587999,,,,,,,,,,,860000000.000000000,422.000000000,14.311589457,33.599550022,0.998670044,,,,,
1775895826.588053,,,,,,,,,,,,,,,,860000000.000000000,422.000000000,35.438805275,68.994143396,0.998670044
1775895826.592649,,,,,,,,,,,865000000.000000000,422.000000000,14.545047208,34.141976843,0.998647579,,,,,
1775895826.592674,,,,,,,,,,,,,,,,865000000.000000000,422.000000000,35.981931408,69.062567993,0.998647579
1775895826.597610,,,,,,,,,,,870000000.000000000,422.000000000,14.779552506,34.684424199,0.998624572,,,,,
1775895826.597639,,,,,,,,,,,,,,,,870000000.000000000,422.000000000,36.524253395,69.131162942,0.998624572
1775895826.604278,,,,,,,,,,,875000000.000000000,422.000000000,15.015205636,35.226752885,0.998601030,,,,,
1775895826.604342,,,,,,,,,,,,,,,,875000000.000000000,422.000000000,37.065667434,69.199779896,0.998601030
1775895826.607814,,,,,,,,,,,880000000.000000000,422.000000000,15.251975819,35.768703335,0.998576937,,,,,
1775895826.607847,,,,,,,,,,,,,,,,880000000.000000000,422.000000000,37.605930632,69.268366761,0.998576937
1775895826.613001,,,,,,,,,,,885000000.000000000,422.000000000,15.489793566,36.310008945,0.998552308,,,,,
1775895826.613040,,,,,,,,,,,,,,,,885000000.000000000,422.000000000,38.144786348,69.336916416,0.998552308
1775895826.619371,880000000.000000000,422.000000000,13.937916493,32.952296863,1.000000000,,,,,,,,,,,,,,,
1775895826.619454,,,,,,,,,,,890000000.000000000,422.000000000,15.728634817,36.850481525,0.998527167,,,,,
1775895826.619511,,,,,,880000000.000000000,422.000000000,34.764856186,69.050298530,1.000000000,,,,,,,,,,
1775895826.619539,,,,,,,,,,,,,,,,890000000.000000000,422.000000000,38.682060477,69.405414978,0.998527167
1775895826.623376,,,,,,,,,,,895000000.000000000,422.000000000,15.968585145,37.390052065,0.998501542,,,,,
1775895826.623411,,,,,,,,,,,,,,,,895000000.000000000,422.000000000,39.217711358,69.473792204,0.998501542
1775895826.627379,,,,,,,,,,,900000000.000000000,422.000000000,16.209676972,37.928477701,0.998475412,,,,,
1775895826.627407,,,,,,,,,,,,,,,,900000000.000000000,422.000000000,39.751530235,69.541930084,0.998475412
1775895826.633071,,,,,,,,,,,905000000.000000000,422.000000000,16.451861453,38.465435629,0.998448774,,,,,
1775895826.633137,,,,,,,,,,,,,,,,905000000.000000000,422.000000000,40.283219884,69.609758398,0.998448774
1775895826.638124,,,,,,,,,,,910000000.000000000,422.000000000,16.695056564,39.000639588,0.998421653,,,,,
1775895826.638154,,,,,,,,,,,,,,,,910000000.000000000,422.000000000,40.812510210,69.677269006,0.998421653
1775895826.643438,,,,,,,,,,,915000000.000000000,422.000000000,16.939270953,39.534030501,0.998394110,,,,,
1775895826.643461,,,,,,,,,,,,,,,,915000000.000000000,422.000000000,41.339354647,69.744493490,0.998394110
1775895826.647855,,,,,,,,,,,920000000.000000000,422.000000000,17.184408965,40.065403906,0.998366140,,,,,
1775895826.647877,,,,,,,,,,,,,,,,920000000.000000000,422.000000000,41.863556094,69.811485303,0.998366140
1775895826.653495,,,,,,,,,,,925000000.000000000,422.000000000,17.430356091,40.594480424,0.998337744,,,,,
1775895826.653548,,,,,,,,,,,,,,,,925000000.000000000,422.000000000,42.384849186,69.878263087,0.998337744
1775895826.657675,,,,,,,,,,,930000000.000000000,422.000000000,17.677013573,41.120983930,0.998308933,,,,,
1775895826.657703,,,,,,,,,,,,,,,,930000000.000000000,422.000000000,42.902977113,69.944822919,0.998308933
1775895826.663127,,,,,,,,,,,935000000.000000000,422.000000000,17.924414647,41.644771899,0.998279751,,,,,
1775895826.663166,,,,,,,,,,,,,,,,935000000.000000000,422.000000000,43.417830144,70.011096420,0.998279751
1775895826.664664,920000000.000000000,422.000000000,15.525852278,36.940986639,1.000000000,,,,,,,,,,,,,,,
1775895826.664691,,,,,,920000000.000000000,422.000000000,38.716328181,69.722839552,1.000000000,,,,,,,,,,
1775895826.668656,,,,,,,,,,,940000000.000000000,422.000000000,18.172474924,42.165545833,0.998250194,,,,,
1775895826.668702,,,,,,,,,,,,,,,,940000000.000000000,422.000000000,43.929137189,70.077042674,0.998250194
1775895826.672899,,,,,,,,,,,945000000.000000000,422.000000000,18.421045783,42.682984240,0.998220292,,,,,
1775895826.672930,,,,,,,,,,,,,,,,945000000.000000000,422.000000000,44.436596244,70.142669410,0.998220292
1775895826.678254,,,,,,,,,,,950000000.000000000,422.000000000,18.670009919,43.196755938,0.998190065,,,,,
1775895826.678289,,,,,,,,,,,,,,,,950000000.000000000,422.000000000,44.939905268,70.207936469,0.998190065
1775895826.683760,,,,,,,,,,,955000000.000000000,422.000000000,18.919379748,43.706679991,0.998159566,,,,,
1775895826.683839,,,,,,,,,,,,,,,,955000000.000000000,422.000000000,45.438921666,70.272758123,0.998159566
1775895826.689453,,,,,,,,,,,960000000.000000000,422.000000000,19.168965716,44.212394710,0.998128775,,,,,
1775895826.689493,,,,,,,,,,,,,,,,960000000.000000000,422.000000000,45.933305890,70.337139706,0.998128775
1775895826.694635,,,,,,,,,,,965000000.000000000,422.000000000,19.418509368,44.713573941,0.998097741,,,,,
1775895826.694677,,,,,,,,,,,,,,,,965000000.000000000,422.000000000,46.422740420,70.401167708,0.998097741
1775895826.699958,,,,,,,,,,,970000000.000000000,422.000000000,19.667820668,45.209960127,0.998066533,,,,,
1775895826.700000,,,,,,,,,,,,,,,,970000000.000000000,422.000000000,46.906984137,70.464889322,0.998066533
1775895826.702916,960000000.000000000,422.000000000,17.283413699,40.674462474,1.000000000,,,,,,,,,,,,,,,
1775895826.702983,,,,,,960000000.000000000,422.000000000,42.425902059,70.096250463,1.000000000,,,,,,,,,,
1775895826.703534,,,,,,,,,,,975000000.000000000,422.000000000,19.916887431,45.701432796,0.998035245,,,,,
1775895826.703567,,,,,,,,,,,,,,,,975000000.000000000,422.000000000,47.385950596,70.528252561,0.998035245
1775895826.707418,,,,,,,,,,,980000000.000000000,422.000000000,20.165632035,46.187685509,0.998003872,,,,,
1775895826.707440,,,,,,,,,,,,,,,,980000000.000000000,422.000000000,47.859377516,70.591149953,0.998003872
1775895826.712540,,,,,,,,,,,985000000.000000000,422.000000000,20.413855494,46.668287996,0.997972408,,,,,
1775895826.712585,,,,,,,,,,,,,,,,985000000.000000000,422.000000000,48.326873571,70.653507920,0.997972408
1775895826.718640,,,,,,,,,,,990000000.000000000,422.000000000,20.661205960,47.142754305,0.997940861,,,,,
1775895826.718696,,,,,,,,,,,,,,,,990000000.000000000,422.000000000,48.787975385,70.715352310,0.997940861
1775895826.722929,,,,,,,,,,,995000000.000000000,422.000000000,20.907423268,47.610769064,0.997909317,,,,,
1775895826.722959,,,,,,,,,,,,,,,,995000000.000000000,422.000000000,49.242389295,70.776713026,0.997909317
1775895826.727542,,,,,,,,,,,0.000000000,423.000000000,21.152119633,48.072005046,0.997877855,,,,,
1775895826.727567,,,,,,,,,,,,,,,,0.000000000,423.000000000,49.689793501,70.837717411,0.997877855
1775895826.734131,,,,,,,,,,,5000000.000000000,423.000000000,21.394961529,48.526197742,0.997846591,,,,,
1775895826.734167,,,,,,,,,,,,,,,,5000000.000000000,423.000000000,50.129933890,70.898464663,0.997846591
1775895826.739246,,,,,,,,,,,10000000.000000000,423.000000000,21.635661516,48.973064234,0.997815610,,,,,
1775895826.739299,,,,,,,,,,,,,,,,10000000.000000000,423.000000000,50.562549921,70.958986299,0.997815610
1775895826.742738,0.000000000,423.000000000,18.818129555,44.250940675,1.000000000,,,,,,,,,,,,,,,
1775895826.742780,,,,,,0.000000000,423.000000000,45.904258578,70.719658350,1.000000000,,,,,,,,,,
1775895826.743397,,,,,,,,,,,15000000.000000000,423.000000000,21.874072315,49.412403496,0.997784998,,,,,
1775895826.743432,,,,,,,,,,,,,,,,15000000.000000000,423.000000000,50.987476634,71.019228059,0.997784998
1775895826.749178,,,,,,,,,,,20000000.000000000,423.000000000,22.109810422,49.843694662,0.997754704,,,,,
1775895826.749223,,,,,,,,,,,,,,,,20000000.000000000,423.000000000,51.404231616,71.079138424,0.997754704
1775895826.753621,,,,,,,,,,,25000000.000000000,423.000000000,22.342361205,50.266323030,0.997724739,,,,,
1775895826.753681,,,,,,,,,,,,,,,,25000000.000000000,423.000000000,51.812233180,71.138706751,0.997724739
1775895826.757857,,,,,,,,,,,30000000.000000000,423.000000000,22.571232250,50.679754208,0.997695214,,,,,
1775895826.757886,,,,,,,,,,,,,,,,30000000.000000000,423.000000000,52.210977609,71.197934161,0.997695214
1775895826.762630,,,,,,,,,,,35000000.000000000,423.000000000,22.796190530,51.083731566,0.997666339,,,,,
1775895826.762669,,,,,,,,,,,,,,,,35000000.000000000,423.000000000,52.600246353,71.256756477,0.997666339
1775895826.768463,,,,,,,,,,,40000000.000000000,423.000000000,23.016932172,51.477930323,0.997638240,,,,,
1775895826.768537,,,,,,,,,,,,,,,,40000000.000000000,423.000000000,52.979751114,71.315119793,0.997638240
1775895826.773736,,,,,,,,,,,45000000.000000000,423.000000000,23.233015512,51.861998765,0.997611031,,,,,
1775895826.773797,,,,,,,,,,,,,,,,45000000.000000000,423.000000000,53.349161953,71.373059456,0.997611031
1775895826.778558,,,,,,,,,,,50000000.000000000,423.000000000,23.443758845,52.235463740,0.997584762,,,,,
1775895826.778583,,,,,,,,,,,,,,,,50000000.000000000,423.000000000,53.708011375,71.430720789,0.997584762
1775895826.779452,40000000.000000000,423.000000000,20.325335998,47.440012006,1.000000000,,,,,,,,,,,,,,,
1775895826.779501,,,,,,40000000.000000000,423.000000000,48.998044430,71.214979487,1.000000000,,,,,,,,,,
1775895826.783302,,,,,,,,,,,55000000.000000000,423.000000000,23.648560068,52.597890624,0.997559532,,,,,
1775895826.783363,,,,,,,,,,,,,,,,55000000.000000000,423.000000000,54.055879901,71.488188595,0.997559532
1775895826.787856,,,,,,,,,,,60000000.000000000,423.000000000,23.846720414,52.948707094,0.997535410,,,,,
1775895826.787882,,,,,,,,,,,,,,,,60000000.000000000,423.000000000,54.392216063,71.545525034,0.997535410
1775895826.792800,,,,,,,,,,,65000000.000000000,423.000000000,24.037713082,53.287385429,0.997512553,,,,,
1775895826.792828,,,,,,,,,,,,,,,,65000000.000000000,423.000000000,54.716532265,71.602665145,0.997512553
1775895826.798908,,,,,,,,,,,70000000.000000000,423.000000000,24.221210775,53.613447473,0.997491149,,,,,
1775895826.798938,,,,,,,,,,,,,,,,70000000.000000000,423.000000000,55.028410436,71.659405744,0.997491149
1775895826.804199,,,,,,,,,,,75000000.000000000,423.000000000,24.396970552,53.926606391,0.997471440,,,,,
1775895826.804245,,,,,,,,,,,,,,,,75000000.000000000,423.000000000,55.327611379,71.715593292,0.997471440
1775895826.807576,,,,,,,,,,,80000000.000000000,423.000000000,24.564348957,54.226390789,0.997453520,,,,,
1775895826.807611,,,,,,,,,,,,,,,,80000000.000000000,423.000000000,55.613682295,71.771273375,0.997453520
1775895826.813076,,,,,,,,,,,85000000.000000000,423.000000000,24.722362410,54.512230440,0.997437480,,,,,
1775895826.813121,,,,,,,,,,,,,,,,85000000.000000000,423.000000000,55.886043123,71.826685997,0.997437480
1775895826.819068,,,,,,,,,,,90000000.000000000,423.000000000,24.869952875,54.783504651,0.997423441,,,,,
1775895826.819154,,,,,,,,,,,,,,,,90000000.000000000,423.000000000,56.144062819,71.882082612,0.997423441
1775895826.819746,80000000.000000000,423.000000000,21.068210493,48.764784373,1.000000000,,,,,,,,,,,,,,,
1775895826.819790,,,,,,80000000.000000000,423.000000000,50.291889367,71.342111526,1.000000000,,,,,,,,,,
1775895826.822916,,,,,,,,,,,95000000.000000000,423.000000000,25.006478751,55.039758259,0.997411640,,,,,
1775895826.822943,,,,,,,,,,,,,,,,95000000.000000000,423.000000000,56.387307593,71.937485167,0.997411640
1775895826.827586,,,,,,,,,,,100000000.000000000,423.000000000,25.131625759,55.280575177,0.997402271,,,,,
1775895826.827603,,,,,,,,,,,,,,,,100000000.000000000,423.000000000,56.615414867,71.992688685,0.997402271
1775895826.833266,,,,,,,,,,,105000000.000000000,423.000000000,25.245283568,55.505681707,0.997395548,,,,,
1775895826.833350,,,,,,,,,,,,,,,,105000000.000000000,423.000000000,56.828168437,72.047429606,0.997395548
1775895826.838126,,,,,,,,,,,110000000.000000000,423.000000000,25.347227127,55.714881939,0.997391629,,,,,
1775895826.838155,,,,,,,,,,,,,,,,110000000.000000000,423.000000000,57.025404321,72.101591706,0.997391629
1775895826.842826,,,,,,,,,,,115000000.000000000,423.000000000,25.436854037,55.907968577,0.997390666,,,,,
1775895826.842856,,,,,,,,,,,,,,,,115000000.000000000,423.000000000,57.206903476,72.155345889,0.997390666
1775895826.847796,,,,,,,,,,,120000000.000000000,423.000000000,25.513277435,56.084653192,0.997392693,,,,,
1775895826.847826,,,,,,,,,,,,,,,,120000000.000000000,423.000000000,57.372342060,72.209030967,0.997392693
1775895826.853476,,,,,,,,,,,125000000.000000000,423.000000000,25.575763212,56.244661363,0.997397791,,,,,
1775895826.853519,,,,,,,,,,,,,,,,125000000.000000000,423.000000000,57.521424314,72.262885113,0.997397791
1775895826.857493,,,,,,,,,,,130000000.000000000,423.000000000,25.623969391,56.387693260,0.997406059,,,,,
1775895826.857566,,,,,,,,,,,,,,,,130000000.000000000,423.000000000,57.653871767,72.316848771,0.997406059
1775895826.862608,,,,,,,,,,,135000000.000000000,423.000000000,25.657890367,56.513423791,0.997417656,,,,,
1775895826.862647,,,,,,,,,,,,,,,,135000000.000000000,423.000000000,57.769415110,72.370613930,0.997417656
1775895826.864546,120000000.000000000,423.000000000,22.350482935,49.402041588,1.000000000,,,,,,,,,,,,,,,
1775895826.864594,,,,,,120000000.000000000,423.000000000,51.050552101,70.588513141,1.000000000,,,,,,,,,,
1775895826.868341,,,,,,,,,,,140000000.000000000,423.000000000,25.677569403,56.621511735,0.997432666,,,,,
1775895826.868382,,,,,,,,,,,,,,,,140000000.000000000,423.000000000,57.867770426,72.423847361,0.997432666
1775895826.872710,,,,,,,,,,,145000000.000000000,423.000000000,25.682756997,56.711638930,0.997451164,,,,,
1775895826.872732,,,,,,,,,,,,,,,,145000000.000000000,423.000000000,57.948638328,72.476467421,0.997451164
1775895826.877871,,,,,,,,,,,150000000.000000000,423.000000000,25.672753974,56.783478125,0.997473213,,,,,
1775895826.877915,,,,,,,,,,,,,,,,150000000.000000000,423.000000000,58.011660188,72.528736885,0.997473213
1775895826.883953,,,,,,,,,,,155000000.000000000,423.000000000,25.646735228,56.836706390,0.997498934,,,,,
1775895826.884017,,,,,,,,,,,,,,,,155000000.000000000,423.000000000,58.056464690,72.581032674,0.997498934
1775895826.889037,,,,,,,,,,,160000000.000000000,423.000000000,25.604048676,56.870962283,0.997528377,,,,,
1775895826.889068,,,,,,,,,,,,,,,,160000000.000000000,423.000000000,58.082660068,72.633602912,0.997528377
1775895826.893441,,,,,,,,,,,165000000.000000000,423.000000000,25.544467344,56.885887366,0.997561604,,,,,
1775895826.893512,,,,,,,,,,,,,,,,165000000.000000000,423.000000000,58.089895824,72.686412993,0.997561604
1775895826.898195,,,,,,,,,,,170000000.000000000,423.000000000,25.468107790,56.881095549,0.997598668,,,,,
1775895826.898220,,,,,,,,,,,,,,,,170000000.000000000,423.000000000,58.077825707,72.739189990,0.997598668
1775895826.903634,,,,,,,,,,,175000000.000000000,423.000000000,25.375101712,56.856177495,0.997639635,,,,,
1775895826.903702,,,,,,,,,,,,,,,,175000000.000000000,423.000000000,58.046077538,72.791667054,0.997639635
1775895826.907671,,,,,,,,,,,180000000.000000000,423.000000000,25.265392072,56.810744173,0.997684521,,,,,
1775895826.907692,,,,,,,,,,,,,,,,180000000.000000000,423.000000000,57.994271523,72.843759864,0.997684521
1775895826.912892,,,,,,,,,,,185000000.000000000,423.000000000,25.138694994,56.744455568,0.997733324,,,,,
1775895826.912947,,,,,,,,,,,,,,,,185000000.000000000,423.000000000,57.922042328,72.895613066,0.997733324
1775895826.918643,,,,,,,,,,,190000000.000000000,423.000000000,24.994616940,56.656988624,0.997786011,,,,,
1775895826.918702,,,,,,,,,,,,,,,,190000000.000000000,423.000000000,57.829022220,72.947496833,0.997786011
1775895826.922503,,,,,,,,,,,195000000.000000000,423.000000000,24.832899670,56.547974831,0.997842540,,,,,
1775895826.922531,,,,,,,,,,,,,,,,195000000.000000000,423.000000000,57.714809473,72.999591913,0.997842540
1775895826.928349,,,,,,,,,,,200000000.000000000,423.000000000,24.653642998,56.417058040,0.997902831,,,,,
1775895826.928384,,,,,,,,,,,,,,,,200000000.000000000,423.000000000,57.579042353,73.051862731,0.997902831
1775895826.933588,,,,,,,,,,,205000000.000000000,423.000000000,24.457285264,56.263916069,0.997966777,,,,,
1775895826.933701,,,,,,,,,,,,,,,,205000000.000000000,423.000000000,57.421416632,73.104082667,0.997966777
1775895826.939386,,,,,,,,,,,210000000.000000000,423.000000000,24.244350658,56.088225116,0.998034217,,,,,
1775895826.939449,,,,,,,,,,,,,,,,210000000.000000000,423.000000000,57.241628348,73.155995404,0.998034217
1775895826.942435,,,,,,,,,,,215000000.000000000,423.000000000,24.015161436,55.889609507,0.998104942,,,,,
1775895826.942458,,,,,,,,,,,,,,,,215000000.000000000,423.000000000,57.039299362,73.207496945,0.998104942
1775895826.942511,200000000.000000000,423.000000000,21.252786429,49.581133661,1.000000000,,,,,,,,,,,,,,,
1775895826.942529,,,,,,200000000.000000000,423.000000000,51.046533562,71.673565781,1.000000000,,,,,,,,,,
1775895826.947861,,,,,,,,,,,220000000.000000000,423.000000000,23.769909039,55.667738148,0.998178704,,,,,
1775895826.947885,,,,,,,,,,,,,,,,220000000.000000000,423.000000000,56.814071127,73.258642992,0.998178704
1775895826.953153,,,,,,,,,,,225000000.000000000,423.000000000,23.508724687,55.422338287,0.998255216,,,,,
1775895826.953208,,,,,,,,,,,,,,,,225000000.000000000,423.000000000,56.565624188,73.309605717,0.998255216
1775895826.957403,,,,,,,,,,,230000000.000000000,423.000000000,23.231789166,55.153124558,0.998334129,,,,,
1775895826.957434,,,,,,,,,,,,,,,,230000000.000000000,423.000000000,56.293625394,73.360549905,0.998334129
1775895826.962303,,,,,,,,,,,235000000.000000000,423.000000000,22.939453191,54.859763392,0.998415052,,,,,
1775895826.962328,,,,,,,,,,,,,,,,235000000.000000000,423.000000000,55.997708287,73.411520133,0.998415052
1775895826.968291,,,,,,,,,,,240000000.000000000,423.000000000,22.632322998,54.541972170,0.998497565,,,,,
1775895826.968349,,,,,,,,,,,,,,,,240000000.000000000,423.000000000,55.677572353,73.462428712,0.998497565
1775895826.974550,,,,,,,,,,,245000000.000000000,423.000000000,22.311165829,54.199506094,0.998581193,,,,,
1775895826.974617,,,,,,,,,,,,,,,,245000000.000000000,423.000000000,55.332962499,73.513111724,0.998581193
1775895826.978091,,,,,,,,,,,250000000.000000000,423.000000000,21.976739806,53.832139508,0.998665414,,,,,
1775895826.978125,,,,,,,,,,,,,,,,250000000.000000000,423.000000000,54.963634984,73.563442997,0.998665414
1775895826.981389,240000000.000000000,423.000000000,20.697683006,48.856825912,1.000000000,,,,,,,,,,,,,,,
1775895826.981439,,,,,,240000000.000000000,423.000000000,50.319173619,71.732093793,1.000000000,,,,,,,,,,
1775895826.983502,,,,,,,,,,,255000000.000000000,423.000000000,21.629653792,53.439596689,0.998749657,,,,,
1775895826.983557,,,,,,,,,,,,,,,,255000000.000000000,423.000000000,54.569279576,73.613402596,0.998749657
1775895826.988180,,,,,,,,,,,260000000.000000000,423.000000000,21.270541374,53.021695186,0.998833347,,,,,
1775895826.988225,,,,,,,,,,,,,,,,260000000.000000000,423.000000000,54.149668377,73.663022677,0.998833347
1775895826.992571,,,,,,,,,,,265000000.000000000,423.000000000,20.900045824,52.578306400,0.998915867,,,,,
1775895826.992602,,,,,,,,,,,,,,,,265000000.000000000,423.000000000,53.704619137,73.712372481,0.998915867
1775895826.997967,,,,,,,,,,,270000000.000000000,423.000000000,20.518868135,52.109322919,0.998996578,,,,,
1775895826.997988,,,,,,,,,,,,,,,,270000000.000000000,423.000000000,53.233971610,73.761496984,0.998996578
1775895827.003258,,,,,,,,,,,275000000.000000000,423.000000000,20.127786076,51.614548130,0.999074818,,,,,
1775895827.003341,,,,,,,,,,,,,,,,275000000.000000000,423.000000000,52.737489933,73.810334317,0.999074818
1775895827.007933,,,,,,,,,,,280000000.000000000,423.000000000,19.727699040,51.093898110,0.999149967,,,,,
1775895827.007965,,,,,,,,,,,,,,,,280000000.000000000,423.000000000,52.215053094,73.858782480,0.999149967
1775895827.012877,,,,,,,,,,,285000000.000000000,423.000000000,19.319533298,50.547368535,0.999221406,,,,,
1775895827.012915,,,,,,,,,,,,,,,,285000000.000000000,423.000000000,51.666615696,73.906748545,0.999221406
1775895827.018858,,,,,,,,,,,290000000.000000000,423.000000000,18.904193155,49.975027960,0.999288543,,,,,
1775895827.018928,,,,,,,,,,,,,,,,290000000.000000000,423.000000000,51.092197338,73.954178966,0.999288543
1775895827.020159,280000000.000000000,423.000000000,17.476708296,47.147127383,1.000000000,,,,,,,,,,,,,,,
1775895827.020197,,,,,,280000000.000000000,423.000000000,48.314494792,73.717115871,1.000000000,,,,,,,,,,
1775895827.024791,,,,,,,,,,,295000000.000000000,423.000000000,18.482484782,49.376848607,0.999350810,,,,,
1775895827.024826,,,,,,,,,,,,,,,,295000000.000000000,423.000000000,50.491718921,74.001030700,0.999350810
1775895827.028102,,,,,,,,,,,300000000.000000000,423.000000000,18.055360937,48.752985300,0.999407735,,,,,
1775895827.028123,,,,,,,,,,,,,,,,300000000.000000000,423.000000000,49.865289057,74.047203826,0.999407735
1775895827.033515,,,,,,,,,,,305000000.000000000,423.000000000,17.623757616,48.103680479,0.999458890,,,,,
1775895827.033584,,,,,,,,,,,,,,,,305000000.000000000,423.000000000,49.213099351,74.092620268,0.999458890
1775895827.038067,,,,,,,,,,,310000000.000000000,423.000000000,17.188557173,47.429247026,0.999503927,,,,,
1775895827.038092,,,,,,,,,,,,,,,,310000000.000000000,423.000000000,48.535405131,74.137242478,0.999503927
1775895827.042431,,,,,,,,,,,315000000.000000000,423.000000000,16.750517708,46.729911086,0.999542571,,,,,
1775895827.042455,,,,,,,,,,,,,,,,315000000.000000000,423.000000000,47.832371766,74.181055090,0.999542571
1775895827.047577,,,,,,,,,,,320000000.000000000,423.000000000,16.310443641,46.006119981,0.999574684,,,,,
1775895827.047599,,,,,,,,,,,,,,,,320000000.000000000,423.000000000,47.104381363,74.224067109,0.999574684
1775895827.053369,,,,,,,,,,,325000000.000000000,423.000000000,15.869148134,45.258430780,0.999600206,,,,,
1775895827.053421,,,,,,,,,,,,,,,,325000000.000000000,423.000000000,46.351927489,74.266278023,0.999600206
1775895827.058075,,,,,,,,,,,330000000.000000000,423.000000000,15.427426888,44.487447619,0.999619180,,,,,
1775895827.058105,,,,,,,,,,,,,,,,330000000.000000000,423.000000000,45.575555302,74.307663342,0.999619180
1775895827.063476,,,,,,,,,,,335000000.000000000,423.000000000,14.985944972,43.693651117,0.999631735,,,,,
1775895827.063522,,,,,,,,,,,,,,,,335000000.000000000,423.000000000,44.775687917,74.348198341,0.999631735
1775895827.064696,320000000.000000000,423.000000000,14.536095423,42.456100395,1.000000000,,,,,,,,,,,,,,,
1775895827.064731,,,,,,320000000.000000000,423.000000000,43.559933867,74.177227303,1.000000000,,,,,,,,,,
1775895827.069591,,,,,,,,,,,340000000.000000000,423.000000000,14.545381665,42.877752688,0.999638133,,,,,
1775895827.069669,,,,,,,,,,,,,,,,340000000.000000000,423.000000000,43.952975520,74.387897475,0.999638133
1775895827.073496,,,,,,,,,,,345000000.000000000,423.000000000,14.106380214,42.040611332,0.999638711,,,,,
1775895827.073563,,,,,,,,,,,,,,,,345000000.000000000,423.000000000,43.108213063,74.426817337,0.999638711
1775895827.078326,,,,,,,,,,,350000000.000000000,423.000000000,13.669504568,41.183175750,0.999633879,,,,,
1775895827.078378,,,,,,,,,,,,,,,,350000000.000000000,423.000000000,42.242280991,74.465073944,0.999633879
1775895827.082980,,,,,,,,,,,355000000.000000000,423.000000000,13.235269789,40.306270904,0.999624083,,,,,
1775895827.083008,,,,,,,,,,,,,,,,355000000.000000000,423.000000000,41.355951029,74.502702686,0.999624083
1775895827.088723,,,,,,,,,,,360000000.000000000,423.000000000,12.804232655,39.410917631,0.999609856,,,,,
1775895827.088760,,,,,,,,,,,,,,,,360000000.000000000,423.000000000,40.450198872,74.539719595,0.999609856
1775895827.093064,,,,,,,,,,,365000000.000000000,423.000000000,12.376940407,38.498221554,0.999591750,,,,,
1775895827.093129,,,,,,,,,,,,,,,,365000000.000000000,423.000000000,39.526094509,74.576114429,0.999591750
1775895827.098361,360000000.000000000,423.000000000,11.718777424,36.394814551,1.000000000,,,,,,,,,,,,,,,
1775895827.098411,,,,,,360000000.000000000,423.000000000,37.443241006,74.283024601,1.000000000,,,,,,,,,,
1775895827.098954,,,,,,,,,,,370000000.000000000,423.000000000,11.953882035,37.569346920,0.999570326,,,,,
1775895827.098976,,,,,,,,,,,,,,,,370000000.000000000,423.000000000,38.584770550,74.611894533,0.999570326
1775895827.103517,,,,,,,,,,,375000000.000000000,423.000000000,11.535383055,36.625342694,0.999546104,,,,,
1775895827.103571,,,,,,,,,,,,,,,,375000000.000000000,423.000000000,37.627240652,74.647134773,0.999546104
1775895827.107482,,,,,,,,,,,380000000.000000000,423.000000000,11.121653772,35.667525238,0.999519642,,,,,
1775895827.107512,,,,,,,,,,,,,,,,380000000.000000000,423.000000000,36.654764641,74.682144192,0.999519642
1775895827.112369,,,,,,,,,,,385000000.000000000,423.000000000,10.712832016,34.697357614,0.999491466,,,,,
1775895827.112394,,,,,,,,,,,,,,,,385000000.000000000,423.000000000,35.668742580,74.717370205,0.999491466
1775895827.118497,,,,,,,,,,,390000000.000000000,423.000000000,10.309080848,33.716353016,0.999462060,,,,,
1775895827.118542,,,,,,,,,,,,,,,,390000000.000000000,423.000000000,34.670641498,74.753227414,0.999462060
1775895827.122676,,,,,,,,,,,395000000.000000000,423.000000000,9.910683052,32.725921058,0.999431816,,,,,
1775895827.122702,,,,,,,,,,,,,,,,395000000.000000000,423.000000000,33.661868750,74.789869832,0.999431816
1775895827.128212,,,,,,,,,,,400000000.000000000,423.000000000,9.518008596,31.727532847,0.999401127,,,,,
1775895827.128253,,,,,,,,,,,,,,,,400000000.000000000,423.000000000,32.643923285,74.827300426,0.999401127
1775895827.133483,,,,,,,,,,,405000000.000000000,423.000000000,9.131427570,30.722652702,0.999370329,,,,,
1775895827.133585,,,,,,,,,,,,,,,,405000000.000000000,423.000000000,31.618315692,74.865446797,0.999370329
1775895827.139686,,,,,,,,,,,410000000.000000000,423.000000000,8.751121274,29.712735397,0.999339697,,,,,
1775895827.139772,,,,,,,,,,,,,,,,410000000.000000000,423.000000000,30.586527713,74.904469398,0.999339697
1775895827.142694,400000000.000000000,423.000000000,8.842840108,29.219383490,1.000000000,,,,,,,,,,,,,,,
1775895827.142731,,,,,,400000000.000000000,423.000000000,30.137661221,74.456320773,1.000000000,,,,,,,,,,
1775895827.142766,,,,,,,,,,,415000000.000000000,423.000000000,8.377077667,28.699351519,0.999309430,,,,,
1775895827.142774,,,,,,,,,,,,,,,,415000000.000000000,423.000000000,29.550126556,74.944900731,0.999309430
1775895827.148147,,,,,,,,,,,420000000.000000000,423.000000000,8.009036604,27.684132386,0.999279731,,,,,
1775895827.148179,,,,,,,,,,,,,,,,420000000.000000000,423.000000000,28.510698318,74.987789368,0.999279731
1775895827.153264,,,,,,,,,,,425000000.000000000,423.000000000,7.646779451,26.668644157,0.999250761,,,,,
1775895827.153303,,,,,,,,,,,,,,,,425000000.000000000,423.000000000,27.469784076,75.034187100,0.999250761
1775895827.157367,,,,,,,,,,,430000000.000000000,423.000000000,7.290255169,25.654380915,0.999222638,,,,,
1775895827.157387,,,,,,,,,,,,,,,,430000000.000000000,423.000000000,26.428899628,75.084902015,0.999222638
1775895827.162859,,,,,,,,,,,435000000.000000000,423.000000000,6.939659419,24.642948740,0.999195424,,,,,
1775895827.162894,,,,,,,,,,,,,,,,435000000.000000000,423.000000000,25.389729515,75.140404064,0.999195424
1775895827.168327,,,,,,,,,,,440000000.000000000,423.000000000,6.595192519,23.635805290,0.999169214,,,,,
1775895827.168374,,,,,,,,,,,,,,,,440000000.000000000,423.000000000,24.353829111,75.201086974,0.999169214
1775895827.173502,,,,,,,,,,,445000000.000000000,423.000000000,6.256891551,22.634348599,0.999144089,,,,,
1775895827.173558,,,,,,,,,,,,,,,,445000000.000000000,423.000000000,23.322671149,75.267704027,0.999144089
1775895827.178716,,,,,,,,,,,450000000.000000000,423.000000000,5.924618830,21.639967540,0.999120105,,,,,
1775895827.178744,,,,,,,,,,,,,,,,450000000.000000000,423.000000000,22.297688355,75.341527471,0.999120105
1775895827.179614,440000000.000000000,423.000000000,6.131205712,21.803737848,1.000000000,,,,,,,,,,,,,,,
1775895827.179643,,,,,,440000000.000000000,423.000000000,22.500230803,74.969569477,1.000000000,,,,,,,,,,
1775895827.183014,,,,,,,,,,,455000000.000000000,423.000000000,5.598304355,20.654287887,0.999097281,,,,,
1775895827.183042,,,,,,,,,,,,,,,,455000000.000000000,423.000000000,21.280560688,75.424054389,0.999097281
1775895827.188122,,,,,,,,,,,460000000.000000000,423.000000000,5.277824548,19.678582212,0.999075653,,,,,
1775895827.188152,,,,,,,,,,,,,,,,460000000.000000000,423.000000000,20.272622930,75.516910619,0.999075653
1775895827.192376,,,,,,,,,,,465000000.000000000,423.000000000,4.963098511,18.713868173,0.999055258,,,,,
1775895827.192401,,,,,,,,,,,,,,,,465000000.000000000,423.000000000,19.274977926,75.621707297,0.999055258
1775895827.197696,,,,,,,,,,,470000000.000000000,423.000000000,4.654095257,17.761106764,0.999036122,,,,,
1775895827.197737,,,,,,,,,,,,,,,,470000000.000000000,423.000000000,18.288687757,75.740178765,0.999036122
1775895827.203962,,,,,,,,,,,475000000.000000000,423.000000000,4.350953363,16.821607988,0.999018254,,,,,
1775895827.204011,,,,,,,,,,,,,,,,475000000.000000000,423.000000000,17.315191558,75.874174805,0.999018254
1775895827.207704,,,,,,,,,,,480000000.000000000,423.000000000,4.053575848,15.896376079,0.999001709,,,,,
1775895827.207749,,,,,,,,,,,,,,,,480000000.000000000,423.000000000,16.355584597,76.026403248,0.999001709
1775895827.212933,,,,,,,,,,,485000000.000000000,423.000000000,3.761761323,14.986197927,0.998986534,,,,,
1775895827.212986,,,,,,,,,,,,,,,,485000000.000000000,423.000000000,15.410731543,76.200323017,0.998986534
1775895827.218616,480000000.000000000,423.000000000,3.814522999,14.933098250,1.000000000,,,,,,,,,,,,,,,
1775895827.218675,,,,,,480000000.000000000,423.000000000,15.371249449,75.963756532,1.000000000,,,,,,,,,,
1775895827.218964,,,,,,,,,,,490000000.000000000,423.000000000,3.475325088,14.091752948,0.998972762,,,,,
1775895827.218987,,,,,,,,,,,,,,,,490000000.000000000,423.000000000,14.481400035,76.400020604,0.998972762
1775895827.223161,,,,,,,,,,,495000000.000000000,423.000000000,3.194274642,13.214090847,0.998960388,,,,,
1775895827.223191,,,,,,,,,,,,,,,,495000000.000000000,423.000000000,13.568763942,76.630151329,0.998960388
1775895827.227345,,,,,,,,,,,500000000.000000000,423.000000000,2.918559832,12.353729102,0.998949470,,,,,
1775895827.227373,,,,,,,,,,,,,,,,500000000.000000000,423.000000000,12.673475606,76.896142385,0.998949470
1775895827.232630,,,,,,,,,,,505000000.000000000,423.000000000,2.648061086,11.510918064,0.998940058,,,,,
1775895827.232665,,,,,,,,,,,,,,,,505000000.000000000,423.000000000,11.795921090,77.204814377,0.998940058
1775895827.238394,,,,,,,,,,,510000000.000000000,423.000000000,2.382674285,10.685867546,0.998932182,,,,,
1775895827.238423,,,,,,,,,,,,,,,,510000000.000000000,423.000000000,10.936462364,77.564703155,0.998932182
1775895827.243535,,,,,,,,,,,515000000.000000000,423.000000000,2.122403552,9.879349359,0.998925829,,,,,
1775895827.243565,,,,,,,,,,,,,,,,515000000.000000000,423.000000000,10.096050433,77.986855121,0.998925829
1775895827.248098,,,,,,,,,,,520000000.000000000,423.000000000,1.867135420,9.091395800,0.998921046,,,,,
1775895827.248126,,,,,,,,,,,,,,,,520000000.000000000,423.000000000,9.274918551,78.485299473,0.998921046
1775895827.253518,,,,,,,,,,,525000000.000000000,423.000000000,1.616621761,8.321623181,0.998917848,,,,,
1775895827.253554,,,,,,,,,,,,,,,,525000000.000000000,423.000000000,8.472906533,79.078939338,0.998917848
1775895827.259098,,,,,,,,,,,530000000.000000000,423.000000000,1.370592099,7.569687969,0.998916228,,,,,
1775895827.259192,,,,,,,,,,,,,,,,530000000.000000000,423.000000000,7.689951841,79.793646875,0.998916228
1775895827.260600,520000000.000000000,423.000000000,1.697356084,8.842840108,1.000000000,,,,,,,,,,,,,,,
1775895827.260638,,,,,,520000000.000000000,423.000000000,8.999245743,79.215702132,1.000000000,,,,,,,,,,
1775895827.262486,,,,,,,,,,,535000000.000000000,423.000000000,1.129002492,6.836061511,0.998916127,,,,,
1775895827.262503,,,,,,,,,,,,,,,,535000000.000000000,423.000000000,6.926930107,80.664597707,0.998916127
1775895827.268194,,,,,,,,,,,540000000.000000000,423.000000000,0.891782964,6.120716815,0.998917576,,,,,
1775895827.268253,,,,,,,,,,,,,,,,540000000.000000000,423.000000000,6.184368868,81.740849405,0.998917576
1775895827.272765,,,,,,,,,,,545000000.000000000,423.000000000,0.658837434,5.423329126,0.998920564,,,,,
1775895827.272787,,,,,,,,,,,,,,,,545000000.000000000,423.000000000,5.462728523,83.093725238,0.998920564
1775895827.278230,,,,,,,,,,,550000000.000000000,423.000000000,0.429960705,4.743316573,0.998925043,,,,,
1775895827.278258,,,,,,,,,,,,,,,,550000000.000000000,423.000000000,4.762586968,84.832222882,0.998925043
1775895827.283339,,,,,,,,,,,555000000.000000000,423.000000000,0.205050847,4.080411866,0.998930874,,,,,
1775895827.283408,,,,,,,,,,,,,,,,555000000.000000000,423.000000000,4.085526064,87.128009386,0.998930874
1775895827.288761,,,,,,,,,,,560000000.000000000,423.000000000,-0.016166104,3.433717232,0.998938009,,,,,
1775895827.288831,,,,,,,,,,,,,,,,560000000.000000000,423.000000000,3.433755105,90.269426256,0.998938009
1775895827.292770,,,,,,,,,,,565000000.000000000,423.000000000,-0.234018753,2.802331161,0.998946348,,,,,
1775895827.292801,,,,,,,,,,,,,,,,565000000.000000000,423.000000000,2.812054452,94.769851261,0.998946348
1775895827.298874,,,,,,,,,,,570000000.000000000,423.000000000,-0.448764538,2.185618283,0.998955758,,,,,
1775895827.298910,,,,,,,,,,,,,,,,570000000.000000000,423.000000000,2.231126720,101.597811922,0.998955758
1775895827.300775,560000000.000000000,423.000000000,-0.848864285,3.603179692,1.000000000,,,,,,,,,,,,,,,
1775895827.300909,,,,,,560000000.000000000,423.000000000,3.701308213,103.240519915,1.000000000,,,,,,,,,,
1775895827.303488,,,,,,,,,,,575000000.000000000,423.000000000,-0.660381656,1.583760786,0.998966043,,,,,
1775895827.303524,,,,,,,,,,,,,,,,575000000.000000000,423.000000000,1.715796627,112.630417654,0.998966043
1775895827.307441,,,,,,,,,,,580000000.000000000,423.000000000,-0.868893029,0.996388961,0.998977147,,,,,
1775895827.307461,,,,,,,,,,,,,,,,580000000.000000000,423.000000000,1.321915923,131.089109957,0.998977147
1775895827.312292,,,,,,,,,,,585000000.000000000,423.000000000,-1.074362883,0.422617534,0.998988971,,,,,
1775895827.312314,,,,,,,,,,,,,,,,585000000.000000000,423.000000000,1.154459817,158.528958164,0.998988971
1775895827.318307,,,,,,,,,,,590000000.000000000,423.000000000,-1.276913829,-0.138840912,0.999001386,,,,,
1775895827.318371,,,,,,,,,,,,,,,,590000000.000000000,423.000000000,1.284434881,-173.795522595,0.999001386
1775895827.322420,,,,,,,,,,,595000000.000000000,423.000000000,-1.476592794,-0.688759106,0.999014179,,,,,
1775895827.322448,,,,,,,,,,,,,,,,595000000.000000000,423.000000000,1.629200864,-154.997027669,0.999014179
1775895827.327727,,,,,,,,,,,600000000.000000000,423.000000000,-1.673639622,-1.228036037,0.999027250,,,,,
1775895827.327757,,,,,,,,,,,,,,,,600000000.000000000,423.000000000,2.075434289,-143.734163761,0.999027250
1775895827.335536,,,,,,,,,,,605000000.000000000,423.000000000,-1.868260146,-1.757279085,0.999040465,,,,,
1775895827.335587,,,,,,,,,,,,,,,,605000000.000000000,423.000000000,2.563991469,-136.754497327,0.999040465
1775895827.339605,,,,,,,,,,,610000000.000000000,423.000000000,-2.060582063,-2.276863467,0.999053705,,,,,
1775895827.339698,,,,,,,,,,,,,,,,610000000.000000000,423.000000000,3.069393732,-132.142663411,0.999053705
1775895827.342758,,,,,,,,,,,615000000.000000000,423.000000000,-2.250529949,-2.786867223,0.999066836,,,,,
1775895827.342791,,,,,,,,,,,,,,,,615000000.000000000,423.000000000,3.579883668,-128.914860873,0.999066836
1775895827.343013,600000000.000000000,423.000000000,-1.697356084,-1.273179998,1.000000000,,,,,,,,,,,,,,,
1775895827.343023,,,,,,600000000.000000000,423.000000000,2.121346141,-143.130102354,1.000000000,,,,,,,,,,
1775895827.347837,,,,,,,,,,,620000000.000000000,423.000000000,-2.438158264,-3.288214010,0.999079846,,,,,
1775895827.347911,,,,,,,,,,,,,,,,620000000.000000000,423.000000000,4.090345403,-126.542781150,0.999079846
1775895827.353405,,,,,,,,,,,625000000.000000000,423.000000000,-2.623627607,-3.782288024,0.999092673,,,,,
1775895827.353482,,,,,,,,,,,,,,,,625000000.000000000,423.000000000,4.598831784,-124.727305729,0.999092673
1775895827.357704,,,,,,,,,,,630000000.000000000,423.000000000,-2.807203933,-4.270419098,0.999105216,,,,,
1775895827.357735,,,,,,,,,,,,,,,,630000000.000000000,423.000000000,5.104774998,-123.291629904,0.999105216
1775895827.362377,,,,,,,,,,,635000000.000000000,423.000000000,-2.989077882,-4.753076263,0.999117311,,,,,
1775895827.362396,,,,,,,,,,,,,,,,635000000.000000000,423.000000000,5.607558969,-122.128773481,0.999117311
1775895827.368626,,,,,,,,,,,640000000.000000000,423.000000000,-3.169379205,-5.230550260,0.999128904,,,,,
1775895827.368681,,,,,,,,,,,,,,,,640000000.000000000,423.000000000,6.106767843,-121.168441251,0.999128904
1775895827.373369,,,,,,,,,,,645000000.000000000,423.000000000,-3.348103944,-5.703050532,0.999139961,,,,,
1775895827.373411,,,,,,,,,,,,,,,,645000000.000000000,423.000000000,6.602079226,-120.361741380,0.999139961
1775895827.377995,,,,,,,,,,,650000000.000000000,423.000000000,-3.525148135,-6.171103825,0.999150479,,,,,
1775895827.378024,,,,,,,,,,,,,,,,650000000.000000000,423.000000000,7.093546540,-119.672029178,0.999150479
1775895827.379788,640000000.000000000,423.000000000,-2.756881233,-4.869568031,1.000000000,,,,,,,,,,,,,,,
1775895827.379886,,,,,,640000000.000000000,423.000000000,5.589295404,-119.475889003,1.000000000,,,,,,,,,,
1775895827.384136,,,,,,,,,,,655000000.000000000,423.000000000,-3.700463963,-6.635340298,0.999160420,,,,,
1775895827.384186,,,,,,,,,,,,,,,,655000000.000000000,423.000000000,7.581449175,-119.072658473,0.999160420
1775895827.389195,,,,,,,,,,,660000000.000000000,423.000000000,-3.874158565,-7.096892390,0.999169801,,,,,
1775895827.389243,,,,,,,,,,,,,,,,660000000.000000000,423.000000000,8.066652576,-118.543080391,0.999169801
1775895827.392333,,,,,,,,,,,665000000.000000000,423.000000000,-4.046353989,-7.556633208,0.999178543,,,,,
1775895827.392350,,,,,,,,,,,,,,,,665000000.000000000,423.000000000,8.549855138,-118.068722586,0.999178543
1775895827.397492,,,,,,,,,,,670000000.000000000,423.000000000,-4.217179014,-8.014777081,0.999186523,,,,,
1775895827.397509,,,,,,,,,,,,,,,,670000000.000000000,423.000000000,9.031212171,-117.640376770,0.999186523
1775895827.403647,,,,,,,,,,,675000000.000000000,423.000000000,-4.386676287,-8.471009131,0.999193684,,,,,
1775895827.403727,,,,,,,,,,,,,,,,675000000.000000000,423.000000000,9.510390034,-117.251814593,0.999193684
1775895827.407588,,,,,,,,,,,680000000.000000000,423.000000000,-4.554934111,-8.925152680,0.999200030,,,,,
1775895827.407622,,,,,,,,,,,,,,,,680000000.000000000,423.000000000,9.987207711,-116.897885382,0.999200030
1775895827.413892,,,,,,,,,,,685000000.000000000,423.000000000,-4.722088614,-9.377422155,0.999205600,,,,,
1775895827.413976,,,,,,,,,,,,,,,,685000000.000000000,423.000000000,10.461860390,-116.573670079,0.999205600
1775895827.419300,,,,,,,,,,,690000000.000000000,423.000000000,-4.888282397,-9.828499116,0.999210428,,,,,
1775895827.419389,,,,,,,,,,,,,,,,690000000.000000000,423.000000000,10.934969988,-116.274095519,0.999210428
1775895827.420951,680000000.000000000,423.000000000,-4.025762404,-8.220164653,1.000000000,,,,,,,,,,,,,,,
1775895827.420987,,,,,,680000000.000000000,423.000000000,9.128993094,-115.974393962,1.000000000,,,,,,,,,,
1775895827.423469,,,,,,,,,,,695000000.000000000,423.000000000,-5.053577745,-10.279047723,0.999214522,,,,,
1775895827.423486,,,,,,,,,,,,,,,,695000000.000000000,423.000000000,11.407117930,-115.994693254,0.999214522
1775895827.427857,,,,,,,,,,,700000000.000000000,423.000000000,-5.217916500,-10.729636400,0.999217863,,,,,
1775895827.427888,,,,,,,,,,,,,,,,700000000.000000000,423.000000000,11.878758018,-115.731451582,0.999217863
1775895827.434164,,,,,,,,,,,705000000.000000000,423.000000000,-5.381146967,-11.180484320,0.999220437,,,,,
1775895827.434196,,,,,,,,,,,,,,,,705000000.000000000,423.000000000,12.350001191,-115.481335403,0.999220437
1775895827.438513,,,,,,,,,,,710000000.000000000,423.000000000,-5.543193121,-11.631699296,0.999222262,,,,,
1775895827.438542,,,,,,,,,,,,,,,,710000000.000000000,423.000000000,12.820896600,-115.242288462,0.999222262
1775895827.442462,,,,,,,,,,,715000000.000000000,423.000000000,-5.704177300,-12.083444390,0.999223380,,,,,
1775895827.442485,,,,,,,,,,,,,,,,715000000.000000000,423.000000000,13.291627441,-115.013216788,0.999223380
1775895827.447890,,,,,,,,,,,720000000.000000000,423.000000000,-5.864449157,-12.536233484,0.999223834,,,,,
1775895827.447907,,,,,,,,,,,,,,,,720000000.000000000,423.000000000,13.762783391,-114.793407652,0.999223834
1775895827.453647,,,,,,,,,,,725000000.000000000,423.000000000,-6.024288694,-12.990716671,0.999223641,,,,,
1775895827.453690,,,,,,,,,,,,,,,,725000000.000000000,423.000000000,14.235046537,-114.581780492,0.999223641
1775895827.458315,,,,,,,,,,,730000000.000000000,423.000000000,-6.183699974,-13.447515027,0.999222789,,,,,
1775895827.458341,,,,,,,,,,,,,,,,730000000.000000000,423.000000000,14.708963915,-114.376497533,0.999222789
1775895827.460775,720000000.000000000,423.000000000,-5.290701108,-11.311230999,1.000000000,,,,,,,,,,,,,,,
1775895827.460806,,,,,,720000000.000000000,423.000000000,12.430352601,-114.842389105,1.000000000,,,,,,,,,,
1775895827.462617,,,,,,,,,,,735000000.000000000,423.000000000,-6.342442931,-13.906954988,0.999221254,,,,,
1775895827.462636,,,,,,,,,,,,,,,,735000000.000000000,423.000000000,15.184725914,-114.175608083,0.999221254
1775895827.468584,,,,,,,,,,,740000000.000000000,423.000000000,-6.500263137,-14.369190104,0.999219032,,,,,
1775895827.468644,,,,,,,,,,,,,,,,740000000.000000000,423.000000000,15.662367609,-113.977621476,0.999219032
1775895827.472940,,,,,,,,,,,745000000.000000000,423.000000000,-6.657133336,-14.834273905,0.999216141,,,,,
1775895827.472973,,,,,,,,,,,,,,,,745000000.000000000,423.000000000,16.141925052,-113.782099453,0.999216141
1775895827.478149,,,,,,,,,,,750000000.000000000,423.000000000,-6.813359364,-15.302327929,0.999212614,,,,,
1775895827.478196,,,,,,,,,,,,,,,,750000000.000000000,423.000000000,16.623621125,-113.589591448,0.999212614
1775895827.483584,,,,,,,,,,,755000000.000000000,423.000000000,-6.969412743,-15.773529999,0.999208466,,,,,
1775895827.483623,,,,,,,,,,,,,,,,755000000.000000000,423.000000000,17.107786081,-113.401009202,0.999208466
1775895827.489401,,,,,,,,,,,760000000.000000000,423.000000000,-7.125636984,-16.248096423,0.999203691,,,,,
1775895827.489447,,,,,,,,,,,,,,,,760000000.000000000,423.000000000,17.594731113,-113.216736756,0.999203691
1775895827.493186,,,,,,,,,,,765000000.000000000,423.000000000,-7.281954239,-16.726130074,0.999198272,,,,,
1775895827.493219,,,,,,,,,,,,,,,,765000000.000000000,423.000000000,18.084508165,-113.036057856,0.999198272
1775895827.498977,,,,,,,,,,,770000000.000000000,423.000000000,-7.437958153,-17.207659334,0.999192195,,,,,
1775895827.499017,,,,,,,,,,,,,,,,770000000.000000000,423.000000000,18.576987077,-112.857505806,0.999192195
1775895827.499084,760000000.000000000,423.000000000,-6.340932857,-14.734777699,1.000000000,,,,,,,,,,,,,,,
1775895827.499114,,,,,,760000000.000000000,423.000000000,15.934430038,-112.905769658,1.000000000,,,,,,,,,,
1775895827.503845,,,,,,,,,,,775000000.000000000,423.000000000,-7.593316368,-17.692645653,0.999185468,,,,,
1775895827.503913,,,,,,,,,,,,,,,,775000000.000000000,423.000000000,19.072010502,-112.680043915,0.999185468
1775895827.507449,,,,,,,,,,,780000000.000000000,423.000000000,-7.748058754,-18.181087664,0.999178114,,,,,
1775895827.507470,,,,,,,,,,,,,,,,780000000.000000000,423.000000000,19.569586454,-112.503650693,0.999178114
1775895827.512578,,,,,,,,,,,785000000.000000000,423.000000000,-7.902585213,-18.672954451,0.999170159,,,,,
1775895827.512601,,,,,,,,,,,,,,,,785000000.000000000,423.000000000,20.069822405,-112.329293030,0.999170159
1775895827.518822,,,,,,,,,,,790000000.000000000,423.000000000,-8.057415928,-19.168237376,0.999161612,,,,,
1775895827.518881,,,,,,,,,,,,,,,,790000000.000000000,423.000000000,20.572879915,-112.158116745,0.999161612
1775895827.522626,,,,,,,,,,,795000000.000000000,423.000000000,-8.212906765,-19.666968675,0.999152471,,,,,
1775895827.522645,,,,,,,,,,,,,,,,795000000.000000000,423.000000000,21.078894288,-111.990703695,0.999152471
1775895827.528458,,,,,,,,,,,800000000.000000000,423.000000000,-8.369019724,-20.169115534,0.999142713,,,,,
1775895827.528494,,,,,,,,,,,,,,,,800000000.000000000,423.000000000,21.587806508,-111.826699831,0.999142713
1775895827.535106,,,,,,,,,,,805000000.000000000,423.000000000,-8.525415707,-20.674565955,0.999132328,,,,,
1775895827.535180,,,,,,,,,,,,,,,,805000000.000000000,423.000000000,22.099388904,-111.665155017,0.999132328
1775895827.540280,,,,,,,,,,,810000000.000000000,423.000000000,-8.681767382,-21.183202126,0.999121327,,,,,
1775895827.540393,,,,,,,,,,,,,,,,810000000.000000000,423.000000000,22.613418479,-111.505233120,0.999121327
1775895827.543031,,,,,,,,,,,815000000.000000000,423.000000000,-8.838070925,-21.694947042,0.999109734,,,,,
1775895827.543056,,,,,,,,,,,,,,,,815000000.000000000,423.000000000,23.129817471,-111.346851145,0.999109734
1775895827.543839,800000000.000000000,423.000000000,-7.386903990,-18.436974506,1.000000000,,,,,,,,,,,,,,,
1775895827.543879,,,,,,800000000.000000000,423.000000000,19.681832657,-111.250505507,1.000000000,,,,,,,,,,
1775895827.547884,,,,,,,,,,,820000000.000000000,423.000000000,-8.994583691,-22.209685168,0.999097568,,,,,
1775895827.547917,,,,,,,,,,,,,,,,820000000.000000000,423.000000000,23.648554610,-111.190536434,0.999097568
1775895827.553449,,,,,,,,,,,825000000.000000000,423.000000000,-9.151628793,-22.727306090,0.999084837,,,,,
1775895827.553504,,,,,,,,,,,,,,,,825000000.000000000,423.000000000,24.169619291,-111.036900297,0.999084837
1775895827.557532,,,,,,,,,,,830000000.000000000,423.000000000,-9.309351381,-23.247703086,0.999071537,,,,,
1775895827.557559,,,,,,,,,,,,,,,,830000000.000000000,423.000000000,24.692945261,-110.886120504,0.999071537
1775895827.562519,,,,,,,,,,,835000000.000000000,423.000000000,-9.467675911,-23.770798854,0.999057665,,,,,
1775895827.562539,,,,,,,,,,,,,,,,835000000.000000000,423.000000000,25.218425331,-110.737877074,0.999057665
1775895827.568360,,,,,,,,,,,840000000.000000000,423.000000000,-9.626374270,-24.296473590,0.999043218,,,,,
1775895827.568435,,,,,,,,,,,,,,,,840000000.000000000,423.000000000,25.745870477,-110.591604880,0.999043218
1775895827.575156,,,,,,,,,,,845000000.000000000,423.000000000,-9.785249602,-24.824514860,0.999028202,,,,,
1775895827.575230,,,,,,,,,,,,,,,,845000000.000000000,423.000000000,26.275020392,-110.446922686,0.999028202
1775895827.578597,,,,,,,,,,,850000000.000000000,423.000000000,-9.944267972,-25.354694449,0.999012635,,,,,
1775895827.578626,,,,,,,,,,,,,,,,850000000.000000000,423.000000000,26.805650495,-110.303802267,0.999012635
1775895827.582371,840000000.000000000,423.000000000,-8.635508063,-22.168705136,1.000000000,,,,,,,,,,,,,,,
1775895827.582491,,,,,,840000000.000000000,423.000000000,23.501248817,-110.441796558,1.000000000,,,,,,,,,,
1775895827.584458,,,,,,,,,,,855000000.000000000,423.000000000,-10.103554138,-25.886812956,0.998996537,,,,,
1775895827.584484,,,,,,,,,,,,,,,,855000000.000000000,423.000000000,27.337608051,-110.162488055,0.998996537
1775895827.588669,,,,,,,,,,,860000000.000000000,423.000000000,-10.263305309,-26.420733182,0.998979925,,,,,
1775895827.588731,,,,,,,,,,,,,,,,860000000.000000000,423.000000000,27.870815569,-110.023284213,0.998979925
1775895827.592573,,,,,,,,,,,865000000.000000000,423.000000000,-10.423620247,-26.956291280,0.998962805,,,,,
1775895827.592592,,,,,,,,,,,,,,,,865000000.000000000,423.000000000,28.405141516,-109.886311257,0.998962805
1775895827.597805,,,,,,,,,,,870000000.000000000,423.000000000,-10.584504905,-27.493342806,0.998945189,,,,,
1775895827.597835,,,,,,,,,,,,,,,,870000000.000000000,423.000000000,28.940446124,-109.751498370,0.998945189
1775895827.603197,,,,,,,,,,,875000000.000000000,423.000000000,-10.745964631,-28.031817147,0.998927092,,,,,
1775895827.603243,,,,,,,,,,,,,,,,875000000.000000000,423.000000000,29.476657572,-109.618719933,0.998927092
1775895827.607411,,,,,,,,,,,880000000.000000000,423.000000000,-10.908011259,-28.571576987,0.998908514,,,,,
1775895827.607445,,,,,,,,,,,,,,,,880000000.000000000,423.000000000,30.013645148,-109.487917891,0.998908514
1775895827.612562,,,,,,,,,,,885000000.000000000,423.000000000,-11.070660283,-29.112390828,0.998889457,,,,,
1775895827.612602,,,,,,,,,,,,,,,,885000000.000000000,423.000000000,30.551193126,-109.359111392,0.998889457
1775895827.618348,880000000.000000000,423.000000000,-9.669786609,-26.056159592,1.000000000,,,,,,,,,,,,,,,
1775895827.618469,,,,,,880000000.000000000,423.000000000,27.374455649,-109.212671817,1.000000000,,,,,,,,,,
1775895827.619287,,,,,,,,,,,890000000.000000000,423.000000000,-11.233879357,-29.654024354,0.998869933,,,,,
1775895827.619318,,,,,,,,,,,,,,,,890000000.000000000,423.000000000,31.089071448,-109.232240458,0.998869933
1775895827.623553,,,,,,,,,,,895000000.000000000,423.000000000,-11.397621002,-30.196335967,0.998849961,,,,,
1775895827.623580,,,,,,,,,,,,,,,,895000000.000000000,423.000000000,31.627132414,-109.107158073,0.998849961
1775895827.627750,,,,,,,,,,,900000000.000000000,423.000000000,-11.561796530,-30.739235212,0.998829560,,,,,
1775895827.627773,,,,,,,,,,,,,,,,900000000.000000000,423.000000000,32.165266612,-108.983626064,0.998829560
1775895827.633106,,,,,,,,,,,905000000.000000000,423.000000000,-11.726332915,-31.282602353,0.998808742,,,,,
1775895827.633145,,,,,,,,,,,,,,,,905000000.000000000,423.000000000,32.703343589,-108.861466251,0.998808742
1775895827.638036,,,,,,,,,,,910000000.000000000,423.000000000,-11.891232434,-31.826285285,0.998787512,,,,,
1775895827.638065,,,,,,,,,,,,,,,,910000000.000000000,423.000000000,33.241222648,-108.740647726,0.998787512
1775895827.642493,,,,,,,,,,,915000000.000000000,423.000000000,-12.056611551,-32.370124253,0.998765869,,,,,
1775895827.642539,,,,,,,,,,,,,,,,915000000.000000000,423.000000000,33.778782929,-108.621315211,0.998765869
1775895827.647622,,,,,,,,,,,920000000.000000000,423.000000000,-12.222532445,-32.913895219,0.998743805,,,,,
1775895827.647656,,,,,,,,,,,,,,,,920000000.000000000,423.000000000,34.315830933,-108.503565758,0.998743805
1775895827.653475,,,,,,,,,,,925000000.000000000,423.000000000,-12.389004626,-33.457329922,0.998721321,,,,,
1775895827.653522,,,,,,,,,,,,,,,,925000000.000000000,423.000000000,34.852120353,-108.387443128,0.998721321
1775895827.658797,,,,,,,,,,,930000000.000000000,423.000000000,-12.555894889,-34.000166839,0.998698428,,,,,
1775895827.658852,,,,,,,,,,,,,,,,930000000.000000000,423.000000000,35.387380186,-108.272784241,0.998698428
1775895827.660092,920000000.000000000,423.000000000,-10.902521591,-30.021292280,1.000000000,,,,,,,,,,,,,,,
1775895827.660131,,,,,,920000000.000000000,423.000000000,31.345720604,-108.434948823,1.000000000,,,,,,,,,,
1775895827.662480,,,,,,,,,,,935000000.000000000,423.000000000,-12.723178269,-34.542268163,0.998675158,,,,,
1775895827.662501,,,,,,,,,,,,,,,,935000000.000000000,423.000000000,35.921478879,-108.159509301,0.998675158
1775895827.668735,,,,,,,,,,,940000000.000000000,423.000000000,-12.890830820,-35.083432905,0.998651515,,,,,
1775895827.668797,,,,,,,,,,,,,,,,940000000.000000000,423.000000000,36.454227959,-108.047584932,0.998651515
1775895827.673457,,,,,,,,,,,945000000.000000000,423.000000000,-13.058804495,-35.623414102,0.998627505,,,,,
1775895827.673491,,,,,,,,,,,,,,,,945000000.000000000,423.000000000,36.985392555,-107.936977374,0.998627505
1775895827.678386,,,,,,,,,,,950000000.000000000,423.000000000,-13.226975208,-36.161966042,0.998603138,,,,,
1775895827.678410,,,,,,,,,,,,,,,,950000000.000000000,423.000000000,37.514724625,-107.827556751,0.998603138
1775895827.683063,,,,,,,,,,,955000000.000000000,423.000000000,-13.395317335,-36.698975007,0.998578446,,,,,
1775895827.683089,,,,,,,,,,,,,,,,955000000.000000000,423.000000000,38.042119327,-107.719250883,0.998578446
1775895827.689165,,,,,,,,,,,960000000.000000000,423.000000000,-13.563765993,-37.234189873,0.998553418,,,,,
1775895827.689204,,,,,,,,,,,,,,,,960000000.000000000,423.000000000,38.567338616,-107.612025563,0.998553418
1775895827.693083,,,,,,,,,,,965000000.000000000,423.000000000,-13.732278744,-37.767292367,0.998528054,,,,,
1775895827.693127,,,,,,,,,,,,,,,,965000000.000000000,423.000000000,39.090088263,-107.505919326,0.998528054
1775895827.698258,960000000.000000000,423.000000000,-11.922103210,-33.986017849,1.000000000,,,,,,,,,,,,,,,
1775895827.698359,,,,,,960000000.000000000,423.000000000,35.239017846,-107.389868097,1.000000000,,,,,,,,,,
1775895827.698467,,,,,,,,,,,970000000.000000000,423.000000000,-13.900877193,-38.297998872,0.998502375,,,,,
1775895827.698495,,,,,,,,,,,,,,,,970000000.000000000,423.000000000,39.610118782,-107.401030339,0.998502375
1775895827.703678,,,,,,,,,,,975000000.000000000,423.000000000,-14.069621032,-38.826179522,0.998476427,,,,,
1775895827.703735,,,,,,,,,,,,,,,,975000000.000000000,423.000000000,40.127328987,-107.297410809,0.998476427
1775895827.707554,,,,,,,,,,,980000000.000000000,423.000000000,-14.238434917,-39.351625375,0.998450215,,,,,
1775895827.707581,,,,,,,,,,,,,,,,980000000.000000000,423.000000000,40.641519877,-107.194996841,0.998450215
1775895827.712585,,,,,,,,,,,985000000.000000000,423.000000000,-14.407148955,-39.874102204,0.998423760,,,,,
1775895827.712609,,,,,,,,,,,,,,,,985000000.000000000,423.000000000,41.152453630,-107.093635864,0.998423760
1775895827.718253,,,,,,,,,,,990000000.000000000,423.000000000,-14.575603225,-40.393367495,0.998397075,,,,,
1775895827.718282,,,,,,,,,,,,,,,,990000000.000000000,423.000000000,41.659889003,-106.993204759,0.998397075
1775895827.723119,,,,,,,,,,,995000000.000000000,423.000000000,-14.743768208,-40.909276840,0.998370198,,,,,
1775895827.723144,,,,,,,,,,,,,,,,995000000.000000000,423.000000000,42.163699529,-106.893684445,0.998370198
1775895827.727681,,,,,,,,,,,0.000000000,424.000000000,-14.911665935,-41.421509102,0.998343114,,,,,
1775895827.727708,,,,,,,,,,,,,,,,0.000000000,424.000000000,42.663605070,-106.795215683,0.998343114
1775895827.733028,,,,,,,,,,,5000000.000000000,424.000000000,-15.079288870,-41.929727442,0.998315842,,,,,
1775895827.733067,,,,,,,,,,,,,,,,5000000.000000000,424.000000000,43.159305706,-106.697913047,0.998315842
1775895827.739160,,,,,,,,,,,10000000.000000000,424.000000000,-15.246510224,-42.433634092,0.998288423,,,,,
1775895827.739251,,,,,,,,,,,,,,,,10000000.000000000,424.000000000,43.650518208,-106.601740676,0.998288423
1775895827.740117,0.000000000,424.000000000,-13.135516497,-37.878255802,1.000000000,,,,,,,,,,,,,,,
1775895827.740144,,,,,,0.000000000,424.000000000,39.080725805,-106.699244234,1.000000000,,,,,,,,,,
1775895827.742456,,,,,,,,,,,15000000.000000000,424.000000000,-15.413214857,-42.933157633,0.998260944,,,,,
1775895827.742476,,,,,,,,,,,,,,,,15000000.000000000,424.000000000,44.137171109,-106.506559744,0.998260944
1775895827.747929,,,,,,,,,,,20000000.000000000,424.000000000,-15.579195555,-43.428101533,0.998233416,,,,,
1775895827.747948,,,,,,,,,,,,,,,,20000000.000000000,424.000000000,44.619064791,-106.412213287,0.998233416
1775895827.753363,,,,,,,,,,,25000000.000000000,424.000000000,-15.744260749,-43.918142195,0.998205834,,,,,
1775895827.753423,,,,,,,,,,,,,,,,25000000.000000000,424.000000000,45.095887180,-106.318642843,0.998205834
1775895827.757461,,,,,,,,,,,30000000.000000000,424.000000000,-15.908223381,-44.402880999,0.998178199,,,,,
1775895827.757489,,,,,,,,,,,,,,,,30000000.000000000,424.000000000,45.567259543,-106.225845414,0.998178199
1775895827.762892,,,,,,,,,,,35000000.000000000,424.000000000,-16.071098231,-44.882022498,0.998150562,,,,,
1775895827.762943,,,,,,,,,,,,,,,,35000000.000000000,424.000000000,46.032929130,-106.133974584,0.998150562
1775895827.768037,,,,,,,,,,,40000000.000000000,424.000000000,-16.232695055,-45.355192819,0.998122953,,,,,
1775895827.768091,,,,,,,,,,,,,,,,40000000.000000000,424.000000000,46.492540839,-106.043021424,0.998122953
1775895827.773458,,,,,,,,,,,45000000.000000000,424.000000000,-16.392664679,-45.822121944,0.998095466,,,,,
1775895827.773520,,,,,,,,,,,,,,,,45000000.000000000,424.000000000,46.945814662,-105.952776385,0.998095466
1775895827.778646,,,,,,,,,,,50000000.000000000,424.000000000,-16.550638646,-46.282646251,0.998068199,,,,,
1775895827.778674,,,,,,,,,,,,,,,,50000000.000000000,424.000000000,47.392569335,-105.862973756,0.998068199
1775895827.780716,40000000.000000000,424.000000000,-14.137660947,-41.518129155,1.000000000,,,,,,,,,,,,,,,
1775895827.780740,,,,,,40000000.000000000,424.000000000,42.627235212,-105.882050676,1.000000000,,,,,,,,,,
1775895827.783393,,,,,,,,,,,55000000.000000000,424.000000000,-16.706387970,-46.736671553,0.998041230,,,,,
1775895827.783420,,,,,,,,,,,,,,,,55000000.000000000,424.000000000,47.832709586,-105.773463230,0.998041230
1775895827.788612,,,,,,,,,,,60000000.000000000,424.000000000,-16.859750706,-47.183784167,0.998014510,,,,,
1775895827.788653,,,,,,,,,,,,,,,,60000000.000000000,424.000000000,48.265855435,-105.684335870,0.998014510
1775895827.792422,,,,,,,,,,,65000000.000000000,424.000000000,-17.010628555,-47.623440467,0.997988024,,,,,
1775895827.792452,,,,,,,,,,,,,,,,65000000.000000000,424.000000000,48.691515329,-105.595814415,0.997988024
1775895827.797372,,,,,,,,,,,70000000.000000000,424.000000000,-17.158904545,-48.055106754,0.997961815,,,,,
1775895827.797401,,,,,,,,,,,,,,,,70000000.000000000,424.000000000,49.109203904,-105.508100486,0.997961815
1775895827.805116,,,,,,,,,,,75000000.000000000,424.000000000,-17.304462749,-48.478509045,0.997936036,,,,,
1775895827.805193,,,,,,,,,,,,,,,,75000000.000000000,424.000000000,49.518675497,-105.421264745,0.997936036
1775895827.807634,,,,,,,,,,,80000000.000000000,424.000000000,-17.446942342,-48.893388093,0.997910809,,,,,
1775895827.807650,,,,,,,,,,,,,,,,80000000.000000000,424.000000000,49.919668272,-105.335155886,0.997910809
1775895827.813166,,,,,,,,,,,85000000.000000000,424.000000000,-17.585872245,-49.299529563,0.997886255,,,,,
1775895827.813210,,,,,,,,,,,,,,,,85000000.000000000,424.000000000,50.311950936,-105.249516700,0.997886255
1775895827.819418,,,,,,,,,,,90000000.000000000,424.000000000,-17.720695533,-49.696659981,0.997862446,,,,,
1775895827.819493,,,,,,,,,,,,,,,,90000000.000000000,424.000000000,50.695230409,-105.164063514,0.997862446
