__time,/uav/cv/swing_angle/cartesian/header/stamp/nanosec,/uav/cv/swing_angle/cartesian/header/stamp/sec,/uav/cv/swing_angle/cartesian/vector/x,/uav/cv/swing_angle/cartesian/vector/y,/uav/cv/swing_angle/cartesian/vector/z,/uav/cv/swing_angle/polar/header/stamp/nanosec,/uav/cv/swing_angle/polar/header/stamp/sec,/uav/cv/swing_angle/polar/vector/x,/uav/cv/swing_angle/polar/vector/y,/uav/cv/swing_angle/polar/vector/z,/uav/truth/swing_angle/cartesian/header/stamp/nanosec,/uav/truth/swing_angle/cartesian/header/stamp/sec,/uav/truth/swing_angle/cartesian/vector/x,/uav/truth/swing_angle/cartesian/vector/y,/uav/truth/swing_angle/cartesian/vector/z,/uav/truth/swing_angle/polar/header/stamp/nanosec,/uav/truth/swing_angle/polar/header/stamp/sec,/uav/truth/swing_angle/polar/vector/x,/uav/truth/swing_angle/polar/vector/y,/uav/truth/swing_angle/polar/vector/z
1775892522.815764,,,,,,,,,,,650000000.000000000,264.000000000,2.689658718,-15.475450446,0.999889937,,,,,
1775892522.815796,,,,,,,,,,,,,,,,650000000.000000000,264.000000000,15.685829571,-80.369821545,0.999889937
1775892522.822072,,,,,,,,,,,655000000.000000000,264.000000000,2.668736973,-15.116269512,0.999884428,,,,,
1775892522.822193,,,,,,,,,,,,,,,,655000000.000000000,264.000000000,15.329230350,-80.209637484,0.999884428
1775892522.826241,640000000.000000000,264.000000000,2.756881233,-14.734777699,1.000000000,,,,,,,,,,,,,,,
1775892522.826324,,,,,,640000000.000000000,264.000000000,14.968822554,-79.624155080,1.000000000,,,,,,,,,,
1775892522.827275,,,,,,,,,,,660000000.000000000,264.000000000,2.647527520,-14.754219706,0.999878648,,,,,
1775892522.827324,,,,,,,,,,,,,,,,660000000.000000000,264.000000000,14.969863893,-80.041343890,0.999878648
1775892522.830538,,,,,,,,,,,665000000.000000000,264.000000000,2.626007060,-14.389507125,0.999872621,,,,,
1775892522.830562,,,,,,,,,,,,,,,,665000000.000000000,264.000000000,14.607938690,-79.864487018,0.999872621
1775892522.835328,,,,,,,,,,,670000000.000000000,264.000000000,2.604129720,-14.022218664,0.999866378,,,,,
1775892522.835367,,,,,,,,,,,,,,,,670000000.000000000,264.000000000,14.243542809,-79.678565260,0.999866378
1775892522.842115,,,,,,,,,,,675000000.000000000,264.000000000,2.581896433,-13.652591200,0.999859941,,,,,
1775892522.842197,,,,,,,,,,,,,,,,675000000.000000000,264.000000000,13.876919991,-79.482949809,0.999859941
1775892522.846637,,,,,,,,,,,680000000.000000000,264.000000000,2.559395245,-13.280827271,0.999853333,,,,,
1775892522.846665,,,,,,,,,,,,,,,,680000000.000000000,264.000000000,13.508296517,-79.276561109,0.999853333
1775892522.853254,,,,,,,,,,,685000000.000000000,264.000000000,2.536695711,-12.907089618,0.999846577,,,,,
1775892522.853379,,,,,,,,,,,,,,,,685000000.000000000,264.000000000,13.137858809,-79.058243509,0.999846577
1775892522.856549,,,,,,,,,,,690000000.000000000,264.000000000,2.513861017,-12.531437271,0.999839696,,,,,
1775892522.856651,,,,,,,,,,,,,,,,690000000.000000000,264.000000000,12.765693167,-78.826641559,0.999839696
1775892522.863627,,,,,,,,,,,695000000.000000000,264.000000000,2.490930554,-12.154059885,0.999832705,,,,,
1775892522.863718,,,,,,,,,,,,,,,,695000000.000000000,264.000000000,12.392012401,-78.580459706,0.999832705
1775892522.866340,,,,,,,,,,,700000000.000000000,264.000000000,2.467868332,-11.775110757,0.999825623,,,,,
1775892522.866407,,,,,,,,,,,,,,,,700000000.000000000,264.000000000,12.016981936,-78.318556098,0.999825623
1775892522.869817,680000000.000000000,264.000000000,2.545103893,-12.125124765,1.000000000,,,,,,,,,,,,,,,
1775892522.869850,,,,,,680000000.000000000,264.000000000,12.374087811,-78.310630825,1.000000000,,,,,,,,,,
1775892522.871583,,,,,,,,,,,705000000.000000000,264.000000000,2.444608621,-11.394850569,0.999818464,,,,,
1775892522.871629,,,,,,,,,,,,,,,,705000000.000000000,264.000000000,11.640867949,-78.039897837,0.999818464
1775892522.877100,,,,,,,,,,,710000000.000000000,264.000000000,2.421163753,-11.013482633,0.999811250,,,,,
1775892522.877203,,,,,,,,,,,,,,,,710000000.000000000,264.000000000,11.263897622,-77.742881061,0.999811250
1775892522.880488,,,,,,,,,,,715000000.000000000,264.000000000,2.397604339,-10.631253449,0.999803998,,,,,
1775892522.880508,,,,,,,,,,,,,,,,715000000.000000000,264.000000000,10.886355693,-77.425446503,0.999803998
1775892522.885788,,,,,,,,,,,720000000.000000000,264.000000000,2.374014087,-10.248318842,0.999796721,,,,,
1775892522.885868,,,,,,,,,,,,,,,,720000000.000000000,264.000000000,10.508446449,-77.085079295,0.999796721
1775892522.891552,,,,,,,,,,,725000000.000000000,264.000000000,2.350451982,-9.864799185,0.999789430,,,,,
1775892522.891622,,,,,,,,,,,,,,,,725000000.000000000,264.000000000,10.130340857,-76.718993901,0.999789430
1775892522.896214,,,,,,,,,,,730000000.000000000,264.000000000,2.326942696,-9.480651065,0.999782141,,,,,
1775892522.896274,,,,,,,,,,,,,,,,730000000.000000000,264.000000000,9.752050459,-76.323951998,0.999782141
1775892522.901292,,,,,,,,,,,735000000.000000000,264.000000000,2.303514098,-9.095977454,0.999774855,,,,,
1775892522.901323,,,,,,,,,,,,,,,,735000000.000000000,264.000000000,9.373738203,-75.896388888,0.999774855
1775892522.906073,720000000.000000000,264.000000000,2.545103893,-9.463417182,1.000000000,,,,,,,,,,,,,,,
1775892522.906157,,,,,,720000000.000000000,264.000000000,9.787824505,-75.068582822,1.000000000,,,,,,,,,,
1775892522.908680,,,,,,,,,,,740000000.000000000,264.000000000,2.280135295,-8.710913475,0.999767583,,,,,
1775892522.908767,,,,,,,,,,,,,,,,740000000.000000000,264.000000000,8.995593398,-75.432574318,0.999767583
1775892522.912061,,,,,,,,,,,745000000.000000000,264.000000000,2.256714071,-8.325728338,0.999760327,,,,,
1775892522.912156,,,,,,,,,,,,,,,,745000000.000000000,264.000000000,8.617928439,-74.928784201,0.999760327
1775892522.916500,,,,,,,,,,,750000000.000000000,264.000000000,2.233162954,-7.940661129,0.999753106,,,,,
1775892522.916538,,,,,,,,,,,,,,,,750000000.000000000,264.000000000,8.241035795,-74.380598780,0.999753106
1775892522.921754,,,,,,,,,,,755000000.000000000,264.000000000,2.209459328,-7.555912192,0.999745934,,,,,
1775892522.921861,,,,,,,,,,,,,,,,755000000.000000000,264.000000000,7.865198567,-73.782308920,0.999745934
1775892522.926292,,,,,,,,,,,760000000.000000000,264.000000000,2.185662730,-7.171560622,0.999738823,,,,,
1775892522.926365,,,,,,,,,,,,,,,,760000000.000000000,264.000000000,7.490623127,-73.126296718,0.999738823
1775892522.931026,,,,,,,,,,,765000000.000000000,264.000000000,2.161787336,-6.787647750,0.999731777,,,,,
1775892522.931080,,,,,,,,,,,,,,,,765000000.000000000,264.000000000,7.117491627,-72.403699439,0.999731777
1775892522.937281,,,,,,,,,,,770000000.000000000,264.000000000,2.137788485,-6.404106990,0.999724805,,,,,
1775892522.937317,,,,,,,,,,,,,,,,770000000.000000000,264.000000000,6.745895593,-71.603994772,0.999724805
1775892522.942403,,,,,,,,,,,775000000.000000000,264.000000000,2.113607736,-6.021004965,0.999717905,,,,,
1775892522.942477,,,,,,,,,,,,,,,,775000000.000000000,264.000000000,6.376084477,-70.714822429,0.999717905
1775892522.943613,760000000.000000000,264.000000000,2.333256942,-6.759870320,1.000000000,,,,,,,,,,,,,,,
1775892522.943648,,,,,,760000000.000000000,264.000000000,7.144204025,-71.029592192,1.000000000,,,,,,,,,,
1775892522.946789,,,,,,,,,,,780000000.000000000,264.000000000,2.089136607,-5.638438841,0.999711082,,,,,
1775892522.946824,,,,,,,,,,,,,,,,780000000.000000000,264.000000000,6.008363055,-69.721547402,0.999711082
1775892522.951967,,,,,,,,,,,785000000.000000000,264.000000000,2.064335576,-5.256574235,0.999704337,,,,,
1775892522.951998,,,,,,,,,,,,,,,,785000000.000000000,264.000000000,5.643177504,-68.605643563,0.999704337
1775892522.957330,,,,,,,,,,,790000000.000000000,264.000000000,2.039339389,-4.875499133,0.999697677,,,,,
1775892522.957412,,,,,,,,,,,,,,,,790000000.000000000,264.000000000,5.281042437,-67.341931033,0.999697677
1775892522.961210,,,,,,,,,,,795000000.000000000,264.000000000,2.014339629,-4.495405996,0.999691102,,,,,
1775892522.961253,,,,,,,,,,,,,,,,795000000.000000000,264.000000000,4.922707978,-65.898503606,0.999691102
1775892522.965214,,,,,,,,,,,800000000.000000000,264.000000000,1.989410454,-4.116328752,0.999684618,,,,,
1775892522.965237,,,,,,,,,,,,,,,,800000000.000000000,264.000000000,4.568890758,-64.235280453,0.999684618
1775892522.972194,,,,,,,,,,,805000000.000000000,264.000000000,1.964467371,-3.738282717,0.999678229,,,,,
1775892522.972273,,,,,,,,,,,,,,,,805000000.000000000,264.000000000,4.220431602,-62.302333636,0.999678229
1775892522.976824,,,,,,,,,,,810000000.000000000,264.000000000,1.939345851,-3.361245843,0.999671944,,,,,
1775892522.976891,,,,,,,,,,,,,,,,810000000.000000000,264.000000000,3.878377957,-60.035240534,0.999671944
1775892522.980959,,,,,,,,,,,815000000.000000000,264.000000000,1.913880684,-2.985392253,0.999665761,,,,,
1775892522.981044,,,,,,,,,,,,,,,,815000000.000000000,264.000000000,3.544329446,-57.350693386,0.999665761
1775892522.984150,800000000.000000000,264.000000000,2.545103893,-3.814522999,1.000000000,,,,,,,,,,,,,,,
1775892522.984188,,,,,,800000000.000000000,264.000000000,4.581481916,-56.309932474,1.000000000,,,,,,,,,,
1775892522.986141,,,,,,,,,,,820000000.000000000,264.000000000,1.887978189,-2.610820467,0.999659689,,,,,
1775892522.986216,,,,,,,,,,,,,,,,820000000.000000000,264.000000000,3.220402449,-54.136944480,0.999659689
1775892522.991632,,,,,,,,,,,825000000.000000000,264.000000000,1.861690385,-2.237614259,0.999653728,,,,,
1775892522.991707,,,,,,,,,,,,,,,,825000000.000000000,264.000000000,2.909599497,-50.244024961,0.999653728
1775892522.995436,,,,,,,,,,,830000000.000000000,264.000000000,1.835171830,-1.865703779,0.999647885,,,,,
1775892522.995480,,,,,,,,,,,,,,,,830000000.000000000,264.000000000,2.616094352,-45.473004000,0.999647885
1775892523.001607,,,,,,,,,,,835000000.000000000,264.000000000,1.808502813,-1.494974905,0.999642156,,,,,
1775892523.001634,,,,,,,,,,,,,,,,835000000.000000000,264.000000000,2.345776175,-39.575426615,0.999642156
1775892523.006892,,,,,,,,,,,840000000.000000000,264.000000000,1.781689349,-1.125180870,0.999636540,,,,,
1775892523.006976,,,,,,,,,,,,,,,,840000000.000000000,264.000000000,2.106850181,-32.268409460,0.999636540
1775892523.011701,,,,,,,,,,,845000000.000000000,264.000000000,1.754648175,-0.756106890,0.999631029,,,,,
1775892523.011733,,,,,,,,,,,,,,,,845000000.000000000,264.000000000,1.910437997,-23.306706675,0.999631029
1775892523.016465,,,,,,,,,,,850000000.000000000,264.000000000,1.727309374,-0.387653221,0.999625605,,,,,
1775892523.016546,,,,,,,,,,,,,,,,850000000.000000000,264.000000000,1.770223339,-12.645557053,0.999625605
1775892523.025185,,,,,,,,,,,855000000.000000000,264.000000000,1.699587125,-0.019950078,0.999620252,,,,,
1775892523.025260,,,,,,,,,,,,,,,,855000000.000000000,264.000000000,1.699704073,-0.672320700,0.999620252
1775892523.026815,840000000.000000000,264.000000000,2.968583213,-0.636668593,1.000000000,,,,,,,,,,,,,,,
1775892523.026855,,,,,,840000000.000000000,264.000000000,3.035849852,-12.094757077,1.000000000,,,,,,,,,,
1775892523.029575,,,,,,,,,,,860000000.000000000,264.000000000,1.671442369,0.346886819,0.999614969,,,,,
1775892523.029622,,,,,,,,,,,,,,,,860000000.000000000,264.000000000,1.707018916,11.721481031,0.999614969
1775892523.033173,,,,,,,,,,,865000000.000000000,264.000000000,1.642925378,0.712772790,0.999609755,,,,,
1775892523.033199,,,,,,,,,,,,,,,,865000000.000000000,264.000000000,1.790723915,23.448651016,0.999609755
1775892523.040238,,,,,,,,,,,870000000.000000000,264.000000000,1.614100809,1.077727903,0.999604608,,,,,
1775892523.040328,,,,,,,,,,,,,,,,870000000.000000000,264.000000000,1.940512942,33.726979487,0.999604608
1775892523.044123,,,,,,,,,,,875000000.000000000,264.000000000,1.584928475,1.441712157,0.999599522,,,,,
1775892523.044190,,,,,,,,,,,,,,,,875000000.000000000,264.000000000,2.142058121,42.289610529,0.999599522
1775892523.048855,,,,,,,,,,,880000000.000000000,264.000000000,1.555262040,1.804736825,0.999594495,,,,,
1775892523.048885,,,,,,,,,,,,,,,,880000000.000000000,264.000000000,2.381746806,49.248745005,0.999594495
1775892523.054133,,,,,,,,,,,885000000.000000000,264.000000000,1.524994527,2.166731309,0.999589524,,,,,
1775892523.054250,,,,,,,,,,,,,,,,885000000.000000000,264.000000000,2.648754990,54.867740176,0.999589524
1775892523.059439,,,,,,,,,,,890000000.000000000,264.000000000,1.494161712,2.527581206,0.999584607,,,,,
1775892523.059528,,,,,,,,,,,,,,,,890000000.000000000,264.000000000,2.935200229,59.421441957,0.999584607
1775892523.063755,,,,,,,,,,,895000000.000000000,264.000000000,1.462857639,2.887118024,0.999579742,,,,,
1775892523.063803,,,,,,,,,,,,,,,,895000000.000000000,264.000000000,3.235455040,63.143919034,0.999579742
1775892523.068898,880000000.000000000,264.000000000,1.909377262,2.333256942,1.000000000,,,,,,,,,,,,,,,
1775892523.068933,,,,,,880000000.000000000,264.000000000,3.013595695,50.710593137,1.000000000,,,,,,,,,,
1775892523.068949,,,,,,,,,,,900000000.000000000,264.000000000,1.431164269,3.245233529,0.999574934,,,,,
1775892523.068983,,,,,,,,,,,,,,,,900000000.000000000,264.000000000,3.545564385,66.220512538,0.999574934
1775892523.074563,,,,,,,,,,,905000000.000000000,264.000000000,1.399104358,3.601911765,0.999570190,,,,,
1775892523.074641,,,,,,,,,,,,,,,,905000000.000000000,264.000000000,3.862767043,68.793791220,0.999570190
1775892523.078519,,,,,,,,,,,910000000.000000000,264.000000000,1.366590145,3.957255917,0.999565514,,,,,
1775892523.078572,,,,,,,,,,,,,,,,910000000.000000000,264.000000000,4.185163701,70.973045093,0.999565514
1775892523.082775,,,,,,,,,,,915000000.000000000,264.000000000,1.333529329,4.311295847,0.999560899,,,,,
1775892523.082830,,,,,,,,,,,,,,,,915000000.000000000,264.000000000,4.511339882,72.840236579,0.999560899
1775892523.088936,,,,,,,,,,,920000000.000000000,264.000000000,1.299876401,4.664040263,0.999556341,,,,,
1775892523.089010,,,,,,,,,,,,,,,,920000000.000000000,264.000000000,4.840255463,74.456961569,0.999556341
1775892523.095129,,,,,,,,,,,925000000.000000000,264.000000000,1.265597543,5.015372211,0.999551830,,,,,
1775892523.095166,,,,,,,,,,,,,,,,925000000.000000000,264.000000000,5.171014969,75.869975889,0.999551830
1775892523.099094,,,,,,,,,,,930000000.000000000,264.000000000,1.230720600,5.365147032,0.999547370,,,,,
1775892523.099144,,,,,,,,,,,,,,,,930000000.000000000,264.000000000,5.502894367,77.114943110,0.999547370
1775892523.104578,,,,,,,,,,,935000000.000000000,264.000000000,1.195396941,5.713196619,0.999542962,,,,,
1775892523.104678,,,,,,,,,,,,,,,,935000000.000000000,264.000000000,5.835301194,78.218678336,0.999542962
1775892523.111712,,,,,,,,,,,940000000.000000000,264.000000000,1.159730400,6.059569128,0.999538619,,,,,
1775892523.111794,,,,,,,,,,,,,,,,940000000.000000000,264.000000000,6.167933733,79.203316651,0.999538619
1775892523.112298,920000000.000000000,264.000000000,1.485288397,4.658800673,1.000000000,,,,,,,,,,,,,,,
1775892523.112332,,,,,,920000000.000000000,264.000000000,4.887854965,72.349875780,1.000000000,,,,,,,,,,
1775892523.114339,,,,,,,,,,,945000000.000000000,264.000000000,1.123721645,6.404310585,0.999534340,,,,,
1775892523.114390,,,,,,,,,,,,,,,,945000000.000000000,264.000000000,6.500541461,80.087409738,0.999534340
1775892523.118149,,,,,,,,,,,950000000.000000000,264.000000000,1.087204784,6.747521051,0.999530130,,,,,
1775892523.118171,,,,,,,,,,,,,,,,950000000.000000000,264.000000000,6.832960315,80.887365560,0.999530130
1775892523.123938,,,,,,,,,,,955000000.000000000,264.000000000,1.050022620,7.089152020,0.999525979,,,,,
1775892523.123993,,,,,,,,,,,,,,,,955000000.000000000,264.000000000,7.164934640,81.616286798,0.999525979
1775892523.127842,,,,,,,,,,,960000000.000000000,264.000000000,1.012175793,7.429170058,0.999521890,,,,,
1775892523.127867,,,,,,,,,,,,,,,,960000000.000000000,264.000000000,7.496285139,82.283804024,0.999521890
1775892523.133189,,,,,,,,,,,965000000.000000000,264.000000000,0.973801547,7.767498721,0.999517858,,,,,
1775892523.133247,,,,,,,,,,,,,,,,965000000.000000000,264.000000000,7.826831844,82.896887189,0.999517858
1775892523.141093,,,,,,,,,,,970000000.000000000,264.000000000,0.935023756,8.104141680,0.999513887,,,,,
1775892523.141164,,,,,,,,,,,,,,,,970000000.000000000,264.000000000,8.156487477,83.461532240,0.999513887
1775892523.144157,,,,,,,,,,,975000000.000000000,264.000000000,0.895889106,8.439099992,0.999509975,,,,,
1775892523.144228,,,,,,,,,,,,,,,,975000000.000000000,264.000000000,8.485166738,83.983290055,0.999509975
1775892523.145657,960000000.000000000,264.000000000,1.061036691,7.178082873,1.000000000,,,,,,,,,,,,,,,
1775892523.145699,,,,,,960000000.000000000,264.000000000,7.254467228,81.634113876,1.000000000,,,,,,,,,,
1775892523.148077,,,,,,,,,,,980000000.000000000,264.000000000,0.856390365,8.772408492,0.999506124,,,,,
1775892523.148097,,,,,,,,,,,,,,,,980000000.000000000,264.000000000,8.812825475,84.467227584,0.999506124
1775892523.154233,,,,,,,,,,,985000000.000000000,264.000000000,0.816473947,9.104146934,0.999502333,,,,,
1775892523.154302,,,,,,,,,,,,,,,,985000000.000000000,264.000000000,9.139472298,84.917968785,0.999502333
1775892523.159810,,,,,,,,,,,990000000.000000000,264.000000000,0.776031077,9.434303771,0.999498596,,,,,
1775892523.159884,,,,,,,,,,,,,,,,990000000.000000000,264.000000000,9.465031788,85.339749629,0.999498596
1775892523.163904,,,,,,,,,,,995000000.000000000,264.000000000,0.734978351,9.762725942,0.999494907,,,,,
1775892523.163924,,,,,,,,,,,,,,,,995000000.000000000,264.000000000,9.789299912,85.736017780,0.999494907
1775892523.168131,,,,,,,,,,,0.000000000,265.000000000,0.693326200,10.089311828,0.999491267,,,,,
1775892523.168163,,,,,,,,,,,,,,,,0.000000000,265.000000000,10.112138119,86.109280122,0.999491267
1775892523.174384,,,,,,,,,,,5000000.000000000,265.000000000,0.651133384,10.414014849,0.999487679,,,,,
1775892523.174451,,,,,,,,,,,,,,,,5000000.000000000,265.000000000,10.433470267,86.461487357,0.999487679
1775892523.179494,,,,,,,,,,,10000000.000000000,265.000000000,0.608463762,10.736920023,0.999484150,,,,,
1775892523.179560,,,,,,,,,,,,,,,,10000000.000000000,265.000000000,10.753354720,86.794360114,0.999484150
1775892523.183272,,,,,,,,,,,15000000.000000000,265.000000000,0.565351525,11.058089841,0.999480679,,,,,
1775892523.183338,,,,,,,,,,,,,,,,15000000.000000000,265.000000000,11.071828367,87.109540943,0.999480679
1775892523.190443,,,,,,,,,,,20000000.000000000,265.000000000,0.521802194,11.377554426,0.999477258,,,,,
1775892523.190528,,,,,,,,,,,,,,,,20000000.000000000,265.000000000,11.388897136,87.408603803,0.999477258
1775892523.191410,0.000000000,265.000000000,0.848864285,9.463417182,1.000000000,,,,,,,,,,,,,,,
1775892523.191453,,,,,,0.000000000,265.000000000,9.500051140,84.920392140,1.000000000,,,,,,,,,,
1775892523.195070,,,,,,,,,,,25000000.000000000,265.000000000,0.477833437,11.695209854,0.999473876,,,,,
1775892523.195099,,,,,,,,,,,,,,,,25000000.000000000,265.000000000,11.704436242,87.692852037,0.999473876
1775892523.197796,,,,,,,,,,,30000000.000000000,265.000000000,0.433430534,12.010898210,0.999470528,,,,,
1775892523.197824,,,,,,,,,,,,,,,,30000000.000000000,265.000000000,12.018267862,87.963594201,0.999470528
1775892523.203038,,,,,,,,,,,35000000.000000000,265.000000000,0.388587983,12.324495104,0.999467225,,,,,
1775892523.203061,,,,,,,,,,,,,,,,35000000.000000000,265.000000000,12.330250245,88.221971814,0.999467225
1775892523.210191,,,,,,,,,,,40000000.000000000,265.000000000,0.343339606,12.636028768,0.999463978,,,,,
1775892523.210244,,,,,,,,,,,,,,,,40000000.000000000,265.000000000,12.640397082,88.468857416,0.999463978
1775892523.213464,,,,,,,,,,,45000000.000000000,265.000000000,0.297737136,12.945567324,0.999460787,,,,,
1775892523.213553,,,,,,,,,,,,,,,,45000000.000000000,265.000000000,12.948763422,88.704954834,0.999460787
1775892523.219223,,,,,,,,,,,50000000.000000000,265.000000000,0.251781895,13.253210845,0.999457652,,,,,
1775892523.219299,,,,,,,,,,,,,,,,50000000.000000000,265.000000000,13.255436053,88.931106189,0.999457652
1775892523.224752,,,,,,,,,,,55000000.000000000,265.000000000,0.205501126,13.558922986,0.999454562,,,,,
1775892523.224790,,,,,,,,,,,,,,,,55000000.000000000,265.000000000,13.560367040,89.147946813,0.999454562
1775892523.229304,,,,,,,,,,,60000000.000000000,265.000000000,0.158966914,13.862617863,0.999451507,,,,,
1775892523.229382,,,,,,,,,,,,,,,,60000000.000000000,265.000000000,13.863460145,89.355868018,0.999451507
1775892523.229990,40000000.000000000,265.000000000,0.424455434,11.718777424,1.000000000,,,,,,,,,,,,,,,
1775892523.230031,,,,,,40000000.000000000,265.000000000,11.726041933,87.954591511,1.000000000,,,,,,,,,,
1775892523.233448,,,,,,,,,,,65000000.000000000,265.000000000,0.112215740,14.164159240,0.999448485,,,,,
1775892523.233477,,,,,,,,,,,,,,,,65000000.000000000,265.000000000,14.164568585,89.555366675,0.999448485
1775892523.239289,,,,,,,,,,,70000000.000000000,265.000000000,0.065170034,14.463496492,0.999445510,,,,,
1775892523.239368,,,,,,,,,,,,,,,,70000000.000000000,265.000000000,14.463631218,89.747343761,0.999445510
1775892523.243667,,,,,,,,,,,75000000.000000000,265.000000000,0.017754575,14.760665450,0.999442593,,,,,
1775892523.243721,,,,,,,,,,,,,,,,75000000.000000000,265.000000000,14.760675213,89.932614379,0.999442593
1775892523.248092,,,,,,,,,,,80000000.000000000,265.000000000,-0.030012479,15.055732556,0.999439736,,,,,
1775892523.248122,,,,,,,,,,,,,,,,80000000.000000000,265.000000000,15.055759807,90.111573734,0.999439736
1775892523.253298,,,,,,,,,,,85000000.000000000,265.000000000,-0.078084013,15.348719073,0.999436932,,,,,
1775892523.253374,,,,,,,,,,,,,,,,85000000.000000000,265.000000000,15.348899336,90.284474312,0.999436932
1775892523.259001,,,,,,,,,,,90000000.000000000,265.000000000,-0.126413355,15.639627459,0.999434176,,,,,
1775892523.259071,,,,,,,,,,,,,,,,90000000.000000000,265.000000000,15.640089390,90.451547148,0.999434176
1775892523.263486,,,,,,,,,,,95000000.000000000,265.000000000,-0.174997033,15.928400379,0.999431466,,,,,
1775892523.263530,,,,,,,,,,,,,,,,95000000.000000000,265.000000000,15.929266237,90.613156624,0.999431466
1775892523.269117,,,,,,,,,,,100000000.000000000,265.000000000,-0.223820017,16.214941894,0.999428798,,,,,
1775892523.269161,,,,,,,,,,,,,,,,100000000.000000000,265.000000000,16.216327885,90.769601957,0.999428798
1775892523.274477,80000000.000000000,265.000000000,0.212230629,13.937916493,1.000000000,,,,,,,,,,,,,,,
1775892523.274637,,,,,,80000000.000000000,265.000000000,13.939408328,89.144902604,1.000000000,,,,,,,,,,
1775892523.275372,,,,,,,,,,,105000000.000000000,265.000000000,-0.272880541,16.499146909,0.999426172,,,,,
1775892523.275436,,,,,,,,,,,,,,,,105000000.000000000,265.000000000,16.501163710,90.921207218,0.999426172
1775892523.280202,,,,,,,,,,,110000000.000000000,265.000000000,-0.322240099,16.780983758,0.999423599,,,,,
1775892523.280271,,,,,,,,,,,,,,,,110000000.000000000,265.000000000,16.783738018,91.068479735,0.999423599
1775892523.283302,,,,,,,,,,,115000000.000000000,265.000000000,-0.371937699,17.060455153,0.999421088,,,,,
1775892523.283360,,,,,,,,,,,,,,,,115000000.000000000,265.000000000,17.064049993,91.211814453,0.999421088
1775892523.289037,,,,,,,,,,,120000000.000000000,265.000000000,-0.421945798,17.337526440,0.999418635,,,,,
1775892523.289134,,,,,,,,,,,,,,,,120000000.000000000,265.000000000,17.342060700,91.351367248,0.999418635
1775892523.294343,,,,,,,,,,,125000000.000000000,265.000000000,-0.472185294,17.612095238,0.999416233,,,,,
1775892523.294439,,,,,,,,,,,,,,,,125000000.000000000,265.000000000,17.617662351,91.487126756,0.999416233
1775892523.298269,,,,,,,,,,,130000000.000000000,265.000000000,-0.522657041,17.884083457,0.999413890,,,,,
1775892523.298314,,,,,,,,,,,,,,,,130000000.000000000,265.000000000,17.890773140,91.619329239,0.999413890
1775892523.303668,,,,,,,,,,,135000000.000000000,265.000000000,-0.573393445,18.153476463,0.999411621,,,,,
1775892523.303720,,,,,,,,,,,,,,,,135000000.000000000,265.000000000,18.161375868,91.748286152,0.999411621
1775892523.311549,,,,,,,,,,,140000000.000000000,265.000000000,-0.624438019,18.420252056,0.999409428,,,,,
1775892523.311651,,,,,,,,,,,,,,,,140000000.000000000,265.000000000,18.429446606,91.874322367,0.999409428
1775892523.312511,120000000.000000000,265.000000000,-0.212230629,16.115218640,1.000000000,,,,,,,,,,,,,,,
1775892523.312558,,,,,,120000000.000000000,265.000000000,16.116474223,90.734521034,1.000000000,,,,,,,,,,
1775892523.313331,,,,,,,,,,,145000000.000000000,265.000000000,-0.675789838,18.684346693,0.999407307,,,,,
1775892523.313385,,,,,,,,,,,,,,,,145000000.000000000,265.000000000,18.694919275,91.997615501,0.999407307
1775892523.318484,,,,,,,,,,,150000000.000000000,265.000000000,-0.727432878,18.945688430,0.999405261,,,,,
1775892523.318511,,,,,,,,,,,,,,,,150000000.000000000,265.000000000,18.957719117,92.118290113,0.999405261
1775892523.324216,,,,,,,,,,,155000000.000000000,265.000000000,-0.779309301,19.204167128,0.999403292,,,,,
1775892523.324298,,,,,,,,,,,,,,,,155000000.000000000,265.000000000,19.217731859,92.236349143,0.999403292
1775892523.328712,,,,,,,,,,,160000000.000000000,265.000000000,-0.831346126,19.459709929,0.999401409,,,,,
1775892523.328744,,,,,,,,,,,,,,,,160000000.000000000,265.000000000,19.474879743,92.351749480,0.999401409
1775892523.333831,,,,,,,,,,,165000000.000000000,265.000000000,-0.883470136,19.712229781,0.999399613,,,,,
1775892523.333912,,,,,,,,,,,,,,,,165000000.000000000,265.000000000,19.729070568,92.464452350,0.999399613
1775892523.342860,,,,,,,,,,,170000000.000000000,265.000000000,-0.935719622,19.961669066,0.999397915,,,,,
1775892523.342966,,,,,,,,,,,,,,,,170000000.000000000,265.000000000,19.980245712,92.574724363,0.999397915
1775892523.349002,,,,,,,,,,,175000000.000000000,265.000000000,-0.988167332,20.208032413,0.999396334,,,,,
1775892523.349084,,,,,,,,,,,,,,,,175000000.000000000,265.000000000,20.228410601,92.682902336,0.999396334
1775892523.351455,160000000.000000000,265.000000000,-0.636668593,18.054121352,1.000000000,,,,,,,,,,,,,,,
1775892523.351511,,,,,,160000000.000000000,265.000000000,18.063928329,91.952509049,1.000000000,,,,,,,,,,
1775892523.352602,,,,,,,,,,,180000000.000000000,265.000000000,-1.040831413,20.451295911,0.999394871,,,,,
1775892523.352628,,,,,,,,,,,,,,,,180000000.000000000,265.000000000,20.473540436,92.789162215,0.999394871
1775892523.358003,,,,,,,,,,,185000000.000000000,265.000000000,-1.093703803,20.691381568,0.999393522,,,,,
1775892523.358068,,,,,,,,,,,,,,,,185000000.000000000,265.000000000,20.715555529,92.893609507,0.999393522
1775892523.361970,,,,,,,,,,,190000000.000000000,265.000000000,-1.146776450,20.928173453,0.999392289,,,,,
1775892523.361992,,,,,,,,,,,,,,,,190000000.000000000,265.000000000,20.954338448,92.996351341,0.999392289
1775892523.367115,,,,,,,,,,,195000000.000000000,265.000000000,-1.200023839,21.161569771,0.999391178,,,,,
1775892523.367183,,,,,,,,,,,,,,,,195000000.000000000,265.000000000,21.189785189,93.097444130,0.999391178
1775892523.373179,,,,,,,,,,,200000000.000000000,265.000000000,-1.253430261,21.391471270,0.999390197,,,,,
1775892523.373258,,,,,,,,,,,,,,,,200000000.000000000,265.000000000,21.421794801,93.196967636,0.999390197
1775892523.377927,,,,,,,,,,,205000000.000000000,265.000000000,-1.306996567,21.617795565,0.999389354,,,,,
1775892523.377983,,,,,,,,,,,,,,,,205000000.000000000,265.000000000,21.650284085,93.295038120,0.999389354
1775892523.381799,,,,,,,,,,,210000000.000000000,265.000000000,-1.360768301,21.840512970,0.999388662,,,,,
1775892523.381832,,,,,,,,,,,,,,,,210000000.000000000,265.000000000,21.875224870,93.391869732,0.999388662
1775892523.387647,,,,,,,,,,,215000000.000000000,265.000000000,-1.414796094,22.059607221,0.999388135,,,,,
1775892523.387684,,,,,,,,,,,,,,,,215000000.000000000,265.000000000,22.096603009,93.487677202,0.999388135
1775892523.392507,200000000.000000000,265.000000000,-0.848864285,19.763444012,1.000000000,,,,,,,,,,,,,,,
1775892523.392583,,,,,,200000000.000000000,265.000000000,19.778938245,92.361374658,1.000000000,,,,,,,,,,
1775892523.394274,,,,,,,,,,,220000000.000000000,265.000000000,-1.469049894,22.274994666,0.999387769,,,,,
1775892523.394331,,,,,,,,,,,,,,,,220000000.000000000,265.000000000,22.314333192,93.582481402,0.999387769
1775892523.398085,,,,,,,,,,,225000000.000000000,265.000000000,-1.523467302,22.486548030,0.999387562,,,,,
1775892523.398157,,,,,,,,,,,,,,,,225000000.000000000,265.000000000,22.528284826,93.676233702,0.999387562
1775892523.402961,,,,,,,,,,,230000000.000000000,265.000000000,-1.578066188,22.694154218,0.999387521,,,,,
1775892523.402990,,,,,,,,,,,,,,,,230000000.000000000,265.000000000,22.738345819,93.769078367,0.999387521
1775892523.407821,,,,,,,,,,,235000000.000000000,265.000000000,-1.632876763,22.897707113,0.999387661,,,,,
1775892523.407905,,,,,,,,,,,,,,,,235000000.000000000,265.000000000,22.944412004,93.861183496,0.999387661
1775892523.412080,,,,,,,,,,,240000000.000000000,265.000000000,-1.687886977,23.097119180,0.999387988,,,,,
1775892523.412103,,,,,,,,,,,,,,,,240000000.000000000,265.000000000,23.146395579,93.952610122,0.999387988
1775892523.417255,,,,,,,,,,,245000000.000000000,265.000000000,-1.743040401,23.292319532,0.999388507,,,,,
1775892523.417305,,,,,,,,,,,,,,,,245000000.000000000,265.000000000,23.344222795,94.043312604,0.999388507
1775892523.423157,,,,,,,,,,,250000000.000000000,265.000000000,-1.798296173,23.483231293,0.999389223,,,,,
1775892523.423198,,,,,,,,,,,,,,,,250000000.000000000,265.000000000,23.537814762,94.133285071,0.999389223
1775892523.427671,,,,,,,,,,,255000000.000000000,265.000000000,-1.853632015,23.669789800,0.999390149,,,,,
1775892523.427735,,,,,,,,,,,,,,,,255000000.000000000,265.000000000,23.727105873,94.222562899,0.999390149
1775892523.427806,240000000.000000000,265.000000000,-1.273179998,21.436900999,1.000000000,,,,,,,,,,,,,,,
1775892523.427830,,,,,,240000000.000000000,265.000000000,21.468094804,93.239700296,1.000000000,,,,,,,,,,
1775892523.431618,,,,,,,,,,,260000000.000000000,265.000000000,-1.909021346,23.851909519,0.999391292,,,,,
1775892523.431639,,,,,,,,,,,,,,,,260000000.000000000,265.000000000,23.912009507,94.311175751,0.999391292
1775892523.436898,,,,,,,,,,,265000000.000000000,265.000000000,-1.964441288,24.029481486,0.999392650,,,,,
1775892523.436924,,,,,,,,,,,,,,,,265000000.000000000,265.000000000,24.092415986,94.399166735,0.999392650
1775892523.443981,,,,,,,,,,,270000000.000000000,265.000000000,-2.019939858,24.202387692,0.999394230,,,,,
1775892523.444059,,,,,,,,,,,,,,,,270000000.000000000,265.000000000,24.268211321,94.486738180,0.999394230
1775892523.447064,,,,,,,,,,,275000000.000000000,265.000000000,-2.075515572,24.370536394,0.999396042,,,,,
1775892523.447081,,,,,,,,,,,,,,,,275000000.000000000,265.000000000,24.439304798,94.573973637,0.999396042
1775892523.452685,,,,,,,,,,,280000000.000000000,265.000000000,-2.131137609,24.533813018,0.999398088,,,,,
1775892523.452714,,,,,,,,,,,,,,,,280000000.000000000,265.000000000,24.605581161,94.660896702,0.999398088
1775892523.458242,,,,,,,,,,,285000000.000000000,265.000000000,-2.186774065,24.692127310,0.999400377,,,,,
1775892523.458371,,,,,,,,,,,,,,,,285000000.000000000,265.000000000,24.766949348,94.747524766,0.999400377
1775892523.462186,,,,,,,,,,,290000000.000000000,265.000000000,-2.242366064,24.845412966,0.999402914,,,,,
1775892523.462239,,,,,,,,,,,,,,,,290000000.000000000,265.000000000,24.923340293,94.833813208,0.999402914
1775892523.466757,,,,,,,,,,,295000000.000000000,265.000000000,-2.297898636,24.993612594,0.999405711,,,,,
1775892523.466783,,,,,,,,,,,,,,,,295000000.000000000,265.000000000,25.074696800,94.919811524,0.999405711
1775892523.473167,,,,,,,,,,,300000000.000000000,265.000000000,-2.353365752,25.136592539,0.999408764,,,,,
1775892523.473267,,,,,,,,,,,,,,,,300000000.000000000,265.000000000,25.220886541,95.005605053,0.999408764
1775892523.475638,280000000.000000000,265.000000000,-1.697356084,22.712617744,1.000000000,,,,,,,,,,,,,,,
1775892523.475684,,,,,,280000000.000000000,265.000000000,22.763675868,94.049581703,1.000000000,,,,,,,,,,
1775892523.478691,,,,,,,,,,,305000000.000000000,265.000000000,-2.408742556,25.274180828,0.999412075,,,,,
1775892523.478746,,,,,,,,,,,,,,,,305000000.000000000,265.000000000,25.361737891,95.091248429,0.999412075
1775892523.481615,,,,,,,,,,,310000000.000000000,265.000000000,-2.464037117,25.406242922,0.999415654,,,,,
1775892523.481631,,,,,,,,,,,,,,,,310000000.000000000,265.000000000,25.497119024,95.176858204,0.999415654
1775892523.486927,,,,,,,,,,,315000000.000000000,265.000000000,-2.519254370,25.532697075,0.999419515,,,,,
1775892523.486952,,,,,,,,,,,,,,,,315000000.000000000,265.000000000,25.626950618,95.262531716,0.999419515
1775892523.493890,,,,,,,,,,,320000000.000000000,265.000000000,-2.574363807,25.653481036,0.999423663,,,,,
1775892523.493973,,,,,,,,,,,,,,,,320000000.000000000,265.000000000,25.751170256,95.348287819,0.999423663
1775892523.497223,,,,,,,,,,,325000000.000000000,265.000000000,-2.629304574,25.768520449,0.999428098,,,,,
1775892523.497246,,,,,,,,,,,,,,,,325000000.000000000,265.000000000,25.869701194,95.434086860,0.999428098
1775892523.502908,,,,,,,,,,,330000000.000000000,265.000000000,-2.684032977,25.877713695,0.999432821,,,,,
1775892523.502992,,,,,,,,,,,,,,,,330000000.000000000,265.000000000,25.982440863,95.519933344,0.999432821
1775892523.509831,,,,,,,,,,,335000000.000000000,265.000000000,-2.738516298,25.980962724,0.999437837,,,,,
1775892523.509921,,,,,,,,,,,,,,,,335000000.000000000,265.000000000,26.089291123,95.605855122,0.999437837
1775892523.514277,,,,,,,,,,,340000000.000000000,265.000000000,-2.792717207,26.078158143,0.999443146,,,,,
1775892523.514403,,,,,,,,,,,,,,,,340000000.000000000,265.000000000,26.190142268,95.691874873,0.999443146
1775892523.516275,320000000.000000000,265.000000000,-2.121346141,23.609587374,1.000000000,,,,,,,,,,,,,,,
1775892523.516324,,,,,,320000000.000000000,265.000000000,23.684912838,94.844000375,1.000000000,,,,,,,,,,
1775892523.517558,,,,,,,,,,,345000000.000000000,265.000000000,-2.846600451,26.169184042,0.999448748,,,,,
1775892523.517619,,,,,,,,,,,,,,,,345000000.000000000,265.000000000,26.284878344,95.778022755,0.999448748
1775892523.522866,,,,,,,,,,,350000000.000000000,265.000000000,-2.900199837,26.253924855,0.999454648,,,,,
1775892523.522941,,,,,,,,,,,,,,,,350000000.000000000,265.000000000,26.373389488,95.864469392,0.999454648
1775892523.527705,,,,,,,,,,,355000000.000000000,265.000000000,-2.953500963,26.332316430,0.999460852,,,,,
1775892523.527759,,,,,,,,,,,,,,,,355000000.000000000,265.000000000,26.455613229,95.951275051,0.999460852
1775892523.531504,,,,,,,,,,,360000000.000000000,265.000000000,-3.006493848,26.404278120,0.999467357,,,,,
1775892523.531536,,,,,,,,,,,,,,,,360000000.000000000,265.000000000,26.531471224,96.038513818,0.999467357
1775892523.539830,,,,,,,,,,,365000000.000000000,265.000000000,-3.059163731,26.469726704,0.999474161,,,,,
1775892523.539949,,,,,,,,,,,,,,,,365000000.000000000,265.000000000,26.600882329,96.126251821,0.999474161
1775892523.545195,,,,,,,,,,,370000000.000000000,265.000000000,-3.111524924,26.528561427,0.999481257,,,,,
1775892523.545269,,,,,,,,,,,,,,,,370000000.000000000,265.000000000,26.663750677,96.214618793,0.999481257
1775892523.547174,,,,,,,,,,,375000000.000000000,265.000000000,-3.163567692,26.580664768,0.999488644,,,,,
1775892523.547202,,,,,,,,,,,,,,,,375000000.000000000,265.000000000,26.719961964,96.303702365,0.999488644
1775892523.551736,360000000.000000000,265.000000000,-2.545103893,24.318453431,1.000000000,,,,,,,,,,,,,,,
1775892523.551782,,,,,,360000000.000000000,265.000000000,24.422128691,95.617580590,1.000000000,,,,,,,,,,
1775892523.552740,,,,,,,,,,,380000000.000000000,265.000000000,-3.215226019,26.625948210,0.999496317,,,,,
1775892523.552773,,,,,,,,,,,,,,,,380000000.000000000,265.000000000,26.769425840,96.393472846,0.999496317
1775892523.559059,,,,,,,,,,,385000000.000000000,265.000000000,-3.266442197,26.664348209,0.999504270,,,,,
1775892523.559147,,,,,,,,,,,,,,,,385000000.000000000,265.000000000,26.812077376,96.483912508,0.999504270
1775892523.563771,,,,,,,,,,,390000000.000000000,265.000000000,-3.317231317,26.695794639,0.999512496,,,,,
1775892523.563809,,,,,,,,,,,,,,,,390000000.000000000,265.000000000,26.847851708,96.575150774,0.999512496
1775892523.567229,,,,,,,,,,,395000000.000000000,265.000000000,-3.367639177,26.720205909,0.999520990,,,,,
1775892523.567300,,,,,,,,,,,,,,,,395000000.000000000,265.000000000,26.876675760,96.667381898,0.999520990
1775892523.573191,,,,,,,,,,,400000000.000000000,265.000000000,-3.417663852,26.737489019,0.999529740,,,,,
1775892523.573265,,,,,,,,,,,,,,,,400000000.000000000,265.000000000,26.898461142,96.760711113,0.999529740
1775892523.577917,,,,,,,,,,,405000000.000000000,265.000000000,-3.467239886,26.747558470,0.999538735,,,,,
1775892523.577967,,,,,,,,,,,,,,,,405000000.000000000,265.000000000,26.913121094,96.855119122,0.999538735
1775892523.581815,,,,,,,,,,,410000000.000000000,265.000000000,-3.516275293,26.750374532,0.999547962,,,,,
1775892523.581856,,,,,,,,,,,,,,,,410000000.000000000,265.000000000,26.920611518,96.950523647,0.999547962
1775892523.587193,,,,,,,,,,,415000000.000000000,265.000000000,-3.564691260,26.745942063,0.999557413,,,,,
1775892523.587231,,,,,,,,,,,,,,,,415000000.000000000,265.000000000,26.920933443,97.046856677,0.999557413
1775892523.591403,400000000.000000000,265.000000000,-2.968583213,24.669952109,1.000000000,,,,,,,,,,,,,,,
1775892523.591479,,,,,,400000000.000000000,265.000000000,24.807870690,96.441600099,1.000000000,,,,,,,,,,
1775892523.593473,,,,,,,,,,,420000000.000000000,265.000000000,-3.612428120,26.734223365,0.999567069,,,,,
1775892523.593536,,,,,,,,,,,,,,,,420000000.000000000,265.000000000,26.914047429,97.144101744,0.999567069
1775892523.596757,,,,,,,,,,,425000000.000000000,265.000000000,-3.659463468,26.715134807,0.999576911,,,,,
1775892523.596782,,,,,,,,,,,,,,,,425000000.000000000,265.000000000,26.899872239,97.242331286,0.999576911
1775892523.601971,,,,,,,,,,,430000000.000000000,265.000000000,-3.705822210,26.688594794,0.999586923,,,,,
1775892523.601997,,,,,,,,,,,,,,,,430000000.000000000,265.000000000,26.878333598,97.341712457,0.999586923
1775892523.608132,,,,,,,,,,,435000000.000000000,265.000000000,-3.751544051,26.654553207,0.999597093,,,,,
1775892523.608186,,,,,,,,,,,,,,,,435000000.000000000,265.000000000,26.849390269,97.442434400,0.999597093
1775892523.613266,,,,,,,,,,,440000000.000000000,265.000000000,-3.796640420,26.612953821,0.999607401,,,,,
1775892523.613343,,,,,,,,,,,,,,,,440000000.000000000,265.000000000,26.812992479,97.544635579,0.999607401
1775892523.617770,,,,,,,,,,,445000000.000000000,265.000000000,-3.841265313,26.563743199,0.999617837,,,,,
1775892523.617852,,,,,,,,,,,,,,,,445000000.000000000,265.000000000,26.769108723,97.648738247,0.999617837
1775892523.624045,,,,,,,,,,,450000000.000000000,265.000000000,-3.886547033,26.506855042,0.999628417,,,,,
1775892523.624285,,,,,,,,,,,,,,,,450000000.000000000,265.000000000,26.717801435,97.757101871,0.999628417
1775892523.628283,,,,,,,,,,,455000000.000000000,265.000000000,-3.933444829,26.442256727,0.999639130,,,,,
1775892523.628390,,,,,,,,,,,,,,,,455000000.000000000,265.000000000,26.659155592,97.871765552,0.999639130
1775892523.632322,,,,,,,,,,,460000000.000000000,265.000000000,-3.982638953,26.369928106,0.999649942,,,,,
1775892523.632395,,,,,,,,,,,,,,,,460000000.000000000,265.000000000,26.593244990,97.994238982,0.999649942
1775892523.634851,440000000.000000000,265.000000000,-3.180204096,24.494448385,1.000000000,,,,,,,,,,,,,,,
1775892523.634959,,,,,,440000000.000000000,265.000000000,24.654397551,96.952957468,1.000000000,,,,,,,,,,
1775892523.637883,,,,,,,,,,,465000000.000000000,265.000000000,-4.034416426,26.289839623,0.999660803,,,,,
1775892523.637927,,,,,,,,,,,,,,,,465000000.000000000,265.000000000,26.520096111,98.125280240,0.999660803
1775892523.642953,,,,,,,,,,,470000000.000000000,265.000000000,-4.088799374,26.201946759,0.999671661,,,,,
1775892523.643021,,,,,,,,,,,,,,,,470000000.000000000,265.000000000,26.439694379,98.265146722,0.999671661
1775892523.646691,,,,,,,,,,,475000000.000000000,265.000000000,-4.145681490,26.106228964,0.999682466,,,,,
1775892523.646709,,,,,,,,,,,,,,,,475000000.000000000,265.000000000,26.352036208,98.413848367,0.999682466
1775892523.652673,,,,,,,,,,,480000000.000000000,265.000000000,-4.204606991,26.002647760,0.999693159,,,,,
1775892523.652707,,,,,,,,,,,,,,,,480000000.000000000,265.000000000,26.257059674,98.570712934,0.999693159
1775892523.659214,,,,,,,,,,,485000000.000000000,265.000000000,-4.264910236,25.891191433,0.999703688,,,,,
1775892523.659290,,,,,,,,,,,,,,,,485000000.000000000,265.000000000,26.154701288,98.734637506,0.999703688
1775892523.662493,,,,,,,,,,,490000000.000000000,265.000000000,-4.325881951,25.771909792,0.999714008,,,,,
1775892523.662546,,,,,,,,,,,,,,,,490000000.000000000,265.000000000,26.044947748,98.904400034,0.999714008
1775892523.668227,,,,,,,,,,,495000000.000000000,265.000000000,-4.386999707,25.644840621,0.999724083,,,,,
1775892523.668289,,,,,,,,,,,,,,,,495000000.000000000,265.000000000,25.927791816,99.079151062,0.999724083
1775892523.674357,,,,,,,,,,,500000000.000000000,265.000000000,-4.447896672,25.509999654,0.999733885,,,,,
1775892523.674399,,,,,,,,,,,,,,,,500000000.000000000,265.000000000,25.803220395,99.258359840,0.999733885
1775892523.677420,,,,,,,,,,,505000000.000000000,265.000000000,-4.508273499,25.367415039,0.999743392,,,,,
1775892523.677474,,,,,,,,,,,,,,,,505000000.000000000,265.000000000,25.671238451,99.441624831,0.999743392
1775892523.680870,480000000.000000000,265.000000000,-3.603179692,23.964994956,1.000000000,,,,,,,,,,,,,,,
1775892523.680958,,,,,,480000000.000000000,265.000000000,24.176984012,98.063246166,1.000000000,,,,,,,,,,
1775892523.682670,,,,,,,,,,,510000000.000000000,265.000000000,-4.567890616,25.217121906,0.999752585,,,,,
1775892523.682701,,,,,,,,,,,,,,,,510000000.000000000,265.000000000,25.531863327,99.628661626,0.999752585
1775892523.686980,,,,,,,,,,,515000000.000000000,265.000000000,-4.626547550,25.059151926,0.999761448,,,,,
1775892523.687009,,,,,,,,,,,,,,,,515000000.000000000,265.000000000,25.385112307,99.819266333,0.999761448
1775892523.693068,,,,,,,,,,,520000000.000000000,265.000000000,-4.684012084,24.893561669,0.999769965,,,,,
1775892523.693145,,,,,,,,,,,,,,,,520000000.000000000,265.000000000,25.231020705,100.013155626,0.999769965
1775892523.697029,,,,,,,,,,,525000000.000000000,265.000000000,-4.740085129,24.720421088,0.999778125,,,,,
1775892523.697077,,,,,,,,,,,,,,,,525000000.000000000,265.000000000,25.069639385,100.210105044,0.999778125
1775892523.702338,,,,,,,,,,,530000000.000000000,265.000000000,-4.794638957,24.539807600,0.999785921,,,,,
1775892523.702364,,,,,,,,,,,,,,,,530000000.000000000,265.000000000,24.901035031,100.410034034,0.999785921
1775892523.709248,,,,,,,,,,,535000000.000000000,265.000000000,-4.847600021,24.351762133,0.999793345,,,,,
1775892523.709332,,,,,,,,,,,,,,,,535000000.000000000,265.000000000,24.725245620,100.612994615,0.999793345
1775892523.710426,520000000.000000000,265.000000000,-4.025762404,23.072846583,1.000000000,,,,,,,,,,,,,,,
1775892523.710470,,,,,,520000000.000000000,265.000000000,23.352314150,99.381510161,1.000000000,,,,,,,,,,
1775892523.713518,,,,,,,,,,,540000000.000000000,265.000000000,-4.898960586,24.156300231,0.999800394,,,,,
1775892523.713585,,,,,,,,,,,,,,,,540000000.000000000,265.000000000,24.542294074,100.819197525,0.999800394
1775892523.716945,,,,,,,,,,,545000000.000000000,265.000000000,-4.948727370,23.953449253,0.999807065,,,,,
1775892523.717011,,,,,,,,,,,,,,,,545000000.000000000,265.000000000,24.352217560,101.028888909,0.999807065
1775892523.723316,,,,,,,,,,,550000000.000000000,265.000000000,-4.996856239,23.743296840,0.999813355,,,,,
1775892523.723381,,,,,,,,,,,,,,,,550000000.000000000,265.000000000,24.155104282,101.242182895,0.999813355
1775892523.727372,,,,,,,,,,,555000000.000000000,265.000000000,-5.043265407,23.525963539,0.999819259,,,,,
1775892523.727421,,,,,,,,,,,,,,,,555000000.000000000,265.000000000,23.951067874,101.459097683,0.999819259
1775892523.731416,,,,,,,,,,,560000000.000000000,265.000000000,-5.087806655,23.301514083,0.999824772,,,,,
1775892523.731462,,,,,,,,,,,,,,,,560000000.000000000,265.000000000,23.740155314,101.679533705,0.999824772
1775892523.738797,,,,,,,,,,,565000000.000000000,265.000000000,-5.130322159,23.070023681,0.999829895,,,,,
1775892523.738878,,,,,,,,,,,,,,,,565000000.000000000,265.000000000,23.522420209,101.903362019,0.999829895
1775892523.743665,,,,,,,,,,,570000000.000000000,265.000000000,-5.170741722,22.831559730,0.999834627,,,,,
1775892523.743784,,,,,,,,,,,,,,,,570000000.000000000,265.000000000,23.297922087,102.130655123,0.999834627
1775892523.747138,,,,,,,,,,,575000000.000000000,265.000000000,-5.209033619,22.586214235,0.999838972,,,,,
1775892523.747188,,,,,,,,,,,,,,,,575000000.000000000,265.000000000,23.066750544,102.361564696,0.999838972
1775892523.750463,560000000.000000000,265.000000000,-4.447906875,21.620552143,1.000000000,,,,,,,,,,,,,,,
1775892523.750516,,,,,,560000000.000000000,265.000000000,21.993988066,101.103833437,1.000000000,,,,,,,,,,
1775892523.752505,,,,,,,,,,,580000000.000000000,265.000000000,-5.245173540,22.334066710,0.999842932,,,,,
1775892523.752531,,,,,,,,,,,,,,,,580000000.000000000,265.000000000,22.828984133,102.596274776,0.999842932
1775892523.758469,,,,,,,,,,,585000000.000000000,265.000000000,-5.279123039,22.075208192,0.999846509,,,,,
1775892523.758541,,,,,,,,,,,,,,,,585000000.000000000,265.000000000,22.584709706,102.834938704,0.999846509
1775892523.762084,,,,,,,,,,,590000000.000000000,265.000000000,-5.310831679,21.809732439,0.999849705,,,,,
1775892523.762112,,,,,,,,,,,,,,,,590000000.000000000,265.000000000,22.334013975,103.077688017,0.999849705
1775892523.767219,,,,,,,,,,,595000000.000000000,265.000000000,-5.340224758,21.537810028,0.999852521,,,,,
1775892523.767244,,,,,,,,,,,,,,,,595000000.000000000,265.000000000,22.077052345,103.324553046,0.999852521
1775892523.773236,,,,,,,,,,,600000000.000000000,265.000000000,-5.367308162,21.259623921,0.999854962,,,,,
1775892523.773313,,,,,,,,,,,,,,,,600000000.000000000,265.000000000,21.814007177,103.575753426,0.999854962
1775892523.778051,,,,,,,,,,,605000000.000000000,265.000000000,-5.392102034,20.975337222,0.999857032,,,,,
1775892523.778107,,,,,,,,,,,,,,,,605000000.000000000,265.000000000,21.545044590,103.831567299,0.999857032
1775892523.781926,,,,,,,,,,,610000000.000000000,265.000000000,-5.414668727,20.685038462,0.999858735,,,,,
1775892523.781954,,,,,,,,,,,,,,,,610000000.000000000,265.000000000,21.270268248,104.092446050,0.999858735
1775892523.787184,,,,,,,,,,,615000000.000000000,265.000000000,-5.435087019,20.388859384,0.999860073,,,,,
1775892523.787220,,,,,,,,,,,,,,,,615000000.000000000,265.000000000,20.989828440,104.358878438,0.999860073
1775892523.793009,,,,,,,,,,,620000000.000000000,265.000000000,-5.453393489,20.086917939,0.999861048,,,,,
1775892523.793094,,,,,,,,,,,,,,,,620000000.000000000,265.000000000,20.703854564,104.631283479,0.999861048
1775892523.793622,600000000.000000000,265.000000000,-4.658800673,19.575257191,1.000000000,,,,,,,,,,,,,,,
1775892523.793667,,,,,,600000000.000000000,265.000000000,20.042753281,102.907408671,1.000000000,,,,,,,,,,
1775892523.797060,,,,,,,,,,,625000000.000000000,265.000000000,-5.469595961,19.779352265,0.999861658,,,,,
1775892523.797081,,,,,,,,,,,,,,,,625000000.000000000,265.000000000,20.412489932,104.910015949,0.999861658
1775892523.802032,,,,,,,,,,,630000000.000000000,265.000000000,-5.483733024,19.466348296,0.999861905,,,,,
1775892523.802061,,,,,,,,,,,,,,,,630000000.000000000,265.000000000,20.115931322,105.195497277,0.999861905
1775892523.808213,,,,,,,,,,,635000000.000000000,265.000000000,-5.495804557,19.148098934,0.999861789,,,,,
1775892523.808291,,,,,,,,,,,,,,,,635000000.000000000,265.000000000,19.814373942,105.488064410,0.999861789
1775892523.812405,,,,,,,,,,,640000000.000000000,265.000000000,-5.505749237,18.824807292,0.999861307,,,,,
1775892523.812427,,,,,,,,,,,,,,,,640000000.000000000,265.000000000,19.508008036,105.787898878,0.999861307
1775892523.818894,,,,,,,,,,,645000000.000000000,265.000000000,-5.513515995,18.496652052,0.999860463,,,,,
1775892523.818956,,,,,,,,,,,,,,,,645000000.000000000,265.000000000,19.197001990,106.095243647,0.999860463
1775892523.824239,,,,,,,,,,,650000000.000000000,265.000000000,-5.519164829,18.163773755,0.999859265,,,,,
1775892523.824323,,,,,,,,,,,,,,,,650000000.000000000,265.000000000,18.881515468,106.410707944,0.999859265
1775892523.828218,,,,,,,,,,,655000000.000000000,265.000000000,-5.522748437,17.826355744,0.999857712,,,,,
1775892523.828298,,,,,,,,,,,,,,,,655000000.000000000,265.000000000,18.561748951,106.734883960,0.999857712
1775892523.831211,640000000.000000000,265.000000000,-4.869568031,17.476708296,1.000000000,,,,,,,,,,,,,,,
1775892523.831277,,,,,,640000000.000000000,265.000000000,18.065017574,105.140983835,1.000000000,,,,,,,,,,
1775892523.832733,,,,,,,,,,,660000000.000000000,265.000000000,-5.524354385,17.484633203,0.999855809,,,,,
1775892523.832766,,,,,,,,,,,,,,,,660000000.000000000,265.000000000,18.237963185,107.068457327,0.999855809
1775892523.837440,,,,,,,,,,,665000000.000000000,265.000000000,-5.524007005,17.138769808,0.999853564,,,,,
1775892523.837481,,,,,,,,,,,,,,,,665000000.000000000,265.000000000,17.910336472,107.412044174,0.999853564
1775892523.842937,,,,,,,,,,,670000000.000000000,265.000000000,-5.521774916,16.788909841,0.999850982,,,,,
1775892523.842994,,,,,,,,,,,,,,,,670000000.000000000,265.000000000,17.579042827,107.766463142,0.999850982
1775892523.846704,,,,,,,,,,,675000000.000000000,265.000000000,-5.517682648,16.435296788,0.999848069,,,,,
1775892523.846728,,,,,,,,,,,,,,,,675000000.000000000,265.000000000,17.244340263,108.132354305,0.999848069
1775892523.852341,,,,,,,,,,,680000000.000000000,265.000000000,-5.511717754,16.078119183,0.999844833,,,,,
1775892523.852371,,,,,,,,,,,,,,,,680000000.000000000,265.000000000,16.906425737,108.510349573,0.999844833
1775892523.858282,,,,,,,,,,,685000000.000000000,265.000000000,-5.503869066,15.717539282,0.999841284,,,,,
1775892523.858373,,,,,,,,,,,,,,,,685000000.000000000,265.000000000,16.565472991,108.901166891,0.999841284
1775892523.863207,,,,,,,,,,,690000000.000000000,265.000000000,-5.494247597,15.353682905,0.999837435,,,,,
1775892523.863270,,,,,,,,,,,,,,,,690000000.000000000,265.000000000,16.221660746,109.306030319,0.999837435
1775892523.867253,,,,,,,,,,,695000000.000000000,265.000000000,-5.482987047,14.986826772,0.999833294,,,,,
1775892523.867294,,,,,,,,,,,,,,,,695000000.000000000,265.000000000,15.875321431,109.726155917,0.999833294
1775892523.873547,,,,,,,,,,,700000000.000000000,265.000000000,-5.470155222,14.617197751,0.999828877,,,,,
1775892523.873659,,,,,,,,,,,,,,,,700000000.000000000,265.000000000,15.526725286,110.162695841,0.999828877
1775892523.877582,680000000.000000000,265.000000000,-4.869568031,14.933098250,1.000000000,,,,,,,,,,,,,,,
1775892523.877683,,,,,,680000000.000000000,265.000000000,15.640927558,107.715792706,1.000000000,,,,,,,,,,
1775892523.879067,,,,,,,,,,,705000000.000000000,265.000000000,-5.455748544,14.244978761,0.999824196,,,,,
1775892523.879126,,,,,,,,,,,,,,,,705000000.000000000,265.000000000,15.176082562,110.616710528,0.999824196
1775892523.882784,,,,,,,,,,,710000000.000000000,265.000000000,-5.439771442,13.870361852,0.999819265,,,,,
1775892523.882835,,,,,,,,,,,,,,,,710000000.000000000,265.000000000,14.823617693,111.089370871,0.999819265
1775892523.887458,,,,,,,,,,,715000000.000000000,265.000000000,-5.422235897,13.493585064,0.999814096,,,,,
1775892523.887503,,,,,,,,,,,,,,,,715000000.000000000,265.000000000,14.469603706,111.581911795,0.999814096
1775892523.892986,,,,,,,,,,,720000000.000000000,265.000000000,-5.403058774,13.114809329,0.999808705,,,,,
1775892523.893061,,,,,,,,,,,,,,,,720000000.000000000,265.000000000,14.114212506,112.095443531,0.999808705
1775892523.897171,,,,,,,,,,,725000000.000000000,265.000000000,-5.382225086,12.734146942,0.999803111,,,,,
1775892523.897218,,,,,,,,,,,,,,,,725000000.000000000,265.000000000,13.757598065,112.631525005,0.999803111
1775892523.902093,,,,,,,,,,,730000000.000000000,265.000000000,-5.359843339,12.351697780,0.999797334,,,,,
1775892523.902144,,,,,,,,,,,,,,,,730000000.000000000,265.000000000,13.399954776,113.192379815,0.999797334
1775892523.908967,,,,,,,,,,,735000000.000000000,265.000000000,-5.336107801,11.967700729,0.999791388,,,,,
1775892523.909056,,,,,,,,,,,,,,,,735000000.000000000,265.000000000,13.041647540,113.780554173,0.999791388
1775892523.912159,720000000.000000000,265.000000000,-4.869568031,12.327837686,1.000000000,,,,,,,,,,,,,,,
1775892523.912256,,,,,,720000000.000000000,265.000000000,13.200823747,111.297354049,1.000000000,,,,,,,,,,
1775892523.914777,,,,,,,,,,,740000000.000000000,265.000000000,-5.311219185,11.582388518,0.999785296,,,,,
1775892523.914877,,,,,,,,,,,,,,,,740000000.000000000,265.000000000,12.683052162,114.398877120,0.999785296
1775892523.916759,,,,,,,,,,,745000000.000000000,265.000000000,-5.285306487,11.195863547,0.999779082,,,,,
1775892523.916789,,,,,,,,,,,,,,,,745000000.000000000,265.000000000,12.324414038,115.050417005,0.999779082
1775892523.924001,,,,,,,,,,,750000000.000000000,265.000000000,-5.258364197,10.808236969,0.999772757,,,,,
1775892523.924091,,,,,,,,,,,,,,,,750000000.000000000,265.000000000,11.965947177,115.737981401,0.999772757
1775892523.927395,,,,,,,,,,,755000000.000000000,265.000000000,-5.230329808,10.419735478,0.999766328,,,,,
1775892523.927438,,,,,,,,,,,,,,,,755000000.000000000,265.000000000,11.607956434,116.464182764,0.999766328
1775892523.931460,,,,,,,,,,,760000000.000000000,265.000000000,-5.201047835,10.030503806,0.999759812,,,,,
1775892523.931483,,,,,,,,,,,,,,,,760000000.000000000,265.000000000,11.250642186,117.231679973,0.999759812
1775892523.938542,,,,,,,,,,,765000000.000000000,265.000000000,-5.170464647,9.640664326,0.999753226,,,,,
1775892523.938637,,,,,,,,,,,,,,,,765000000.000000000,265.000000000,10.894239315,118.043965512,0.999753226
1775892523.943874,,,,,,,,,,,770000000.000000000,265.000000000,-5.138740089,9.250338730,0.999746592,,,,,
1775892523.944015,,,,,,,,,,,,,,,,770000000.000000000,265.000000000,10.539097800,118.905959124,0.999746592
1775892523.947329,,,,,,,,,,,775000000.000000000,265.000000000,-5.106114259,8.859784059,0.999739923,,,,,
1775892523.947395,,,,,,,,,,,,,,,,775000000.000000000,265.000000000,10.185753185,119.823164377,0.999739923
1775892523.950148,760000000.000000000,265.000000000,-4.658800673,9.463417182,1.000000000,,,,,,,,,,,,,,,
1775892523.950191,,,,,,760000000.000000000,265.000000000,10.511135675,116.053495310,1.000000000,,,,,,,,,,
1775892523.953330,,,,,,,,,,,780000000.000000000,265.000000000,-5.072700560,8.469103789,0.999733241,,,,,
1775892523.953417,,,,,,,,,,,,,,,,780000000.000000000,265.000000000,9.834581602,120.801507699,0.999733241
1775892523.958096,,,,,,,,,,,785000000.000000000,265.000000000,-5.038429536,8.078358188,0.999726556,,,,,
1775892523.958174,,,,,,,,,,,,,,,,785000000.000000000,265.000000000,9.485865432,121.846827843,0.999726556
1775892523.963438,,,,,,,,,,,790000000.000000000,265.000000000,-5.003158693,7.687574336,0.999719877,,,,,
1775892523.963514,,,,,,,,,,,,,,,,790000000.000000000,265.000000000,9.139852737,122.965435050,0.999719877
1775892523.967224,,,,,,,,,,,795000000.000000000,265.000000000,-4.966803320,7.296988347,0.999713208,,,,,
1775892523.967248,,,,,,,,,,,,,,,,795000000.000000000,265.000000000,8.797029363,124.164018844,0.999713208
1775892523.972564,,,,,,,,,,,800000000.000000000,265.000000000,-4.929390650,6.906739860,0.999706566,,,,,
1775892523.972600,,,,,,,,,,,,,,,,800000000.000000000,265.000000000,8.457901466,125.451038309,0.999706566
1775892523.977812,,,,,,,,,,,805000000.000000000,265.000000000,-4.891048981,6.516937918,0.999699969,,,,,
1775892523.977880,,,,,,,,,,,,,,,,805000000.000000000,265.000000000,8.123064767,126.836679798,0.999699969
1775892523.981907,,,,,,,,,,,810000000.000000000,265.000000000,-4.852069277,6.127638107,0.999693438,,,,,
1775892523.981963,,,,,,,,,,,,,,,,810000000.000000000,265.000000000,7.793246570,128.333540588,0.999693438
1775892523.987816,,,,,,,,,,,815000000.000000000,265.000000000,-4.812632140,5.739041324,0.999686973,,,,,
1775892523.987915,,,,,,,,,,,,,,,,815000000.000000000,265.000000000,7.469318610,129.954337827,0.999686973
1775892523.992056,800000000.000000000,265.000000000,-4.447906875,6.550489524,1.000000000,,,,,,,,,,,,,,,
1775892523.992130,,,,,,800000000.000000000,265.000000000,7.896274711,124.114472945,1.000000000,,,,,,,,,,
1775892523.992581,,,,,,,,,,,820000000.000000000,265.000000000,-4.772682055,5.351232730,0.999680584,,,,,
1775892523.992617,,,,,,,,,,,,,,,,820000000.000000000,265.000000000,7.152010083,131.712290873,0.999680584
1775892523.997480,,,,,,,,,,,825000000.000000000,265.000000000,-4.732011409,4.964314278,0.999674273,,,,,
1775892523.997530,,,,,,,,,,,,,,,,825000000.000000000,265.000000000,6.842057962,133.621013706,0.999674273
1775892524.002114,,,,,,,,,,,830000000.000000000,265.000000000,-4.690450157,4.578335651,0.999668047,,,,,
1775892524.002186,,,,,,,,,,,,,,,,830000000.000000000,265.000000000,6.540287209,135.696042628,0.999668047
1775892524.008984,,,,,,,,,,,835000000.000000000,265.000000000,-4.648020283,4.193484428,0.999661911,,,,,
1775892524.009038,,,,,,,,,,,,,,,,835000000.000000000,265.000000000,6.247878380,137.954607705,0.999661911
1775892524.013193,,,,,,,,,,,840000000.000000000,265.000000000,-4.604824270,3.809775123,0.999655882,,,,,
1775892524.013245,,,,,,,,,,,,,,,,840000000.000000000,265.000000000,5.966107981,140.416702332,0.999655882
1775892524.019579,,,,,,,,,,,845000000.000000000,265.000000000,-4.560984266,3.427192842,0.999649965,,,,,
1775892524.019701,,,,,,,,,,,,,,,,845000000.000000000,265.000000000,5.696442863,143.103604139,0.999649965
1775892524.023156,,,,,,,,,,,850000000.000000000,265.000000000,-4.516644916,3.045722316,0.999644165,,,,,
1775892524.023189,,,,,,,,,,,,,,,,850000000.000000000,265.000000000,5.440586286,146.036971192,0.999644165
1775892524.029157,,,,,,,,,,,855000000.000000000,265.000000000,-4.471856755,2.665535901,0.999638472,,,,,
1775892524.029242,,,,,,,,,,,,,,,,855000000.000000000,265.000000000,5.200490900,149.235175084,0.999638472
1775892524.032446,,,,,,,,,,,860000000.000000000,265.000000000,-4.426483118,2.286705144,0.999632892,,,,,
1775892524.032514,,,,,,,,,,,,,,,,860000000.000000000,265.000000000,4.978083124,152.713411174,0.999632892
1775892524.033021,840000000.000000000,265.000000000,-4.236892244,3.603179692,1.000000000,,,,,,,,,,,,,,,
1775892524.033123,,,,,,840000000.000000000,265.000000000,5.553371068,139.635463427,1.000000000,,,,,,,,,,
1775892524.039406,,,,,,,,,,,865000000.000000000,265.000000000,-4.380297269,1.909184836,0.999627424,,,,,
1775892524.039446,,,,,,,,,,,,,,,,865000000.000000000,265.000000000,4.775319991,156.482820091,0.999627424
1775892524.042289,,,,,,,,,,,870000000.000000000,265.000000000,-4.333198242,1.532973145,0.999622067,,,,,
1775892524.042340,,,,,,,,,,,,,,,,870000000.000000000,265.000000000,4.594425707,160.547615180,0.999622067
1775892524.046957,,,,,,,,,,,875000000.000000000,265.000000000,-4.285331912,1.158200067,0.999616816,,,,,
1775892524.047005,,,,,,,,,,,,,,,,875000000.000000000,265.000000000,4.437963574,164.900924810,0.999616816
1775892524.052536,,,,,,,,,,,880000000.000000000,265.000000000,-4.236930861,0.784808768,0.999611683,,,,,
1775892524.052632,,,,,,,,,,,,,,,,880000000.000000000,265.000000000,4.308483420,169.524084132,0.999611683
1775892524.059465,,,,,,,,,,,885000000.000000000,265.000000000,-4.188137023,0.412756194,0.999606665,,,,,
1775892524.059498,,,,,,,,,,,,,,,,885000000.000000000,265.000000000,4.208283358,174.381335222,0.999606665
1775892524.062821,,,,,,,,,,,890000000.000000000,265.000000000,-4.138929879,0.042057805,0.999601751,,,,,
1775892524.062884,,,,,,,,,,,,,,,,890000000.000000000,265.000000000,4.139142076,179.418820887,0.999601751
1775892524.067770,,,,,,,,,,,895000000.000000000,265.000000000,-4.089164639,-0.327130292,0.999596927,,,,,
1775892524.067831,,,,,,,,,,,,,,,,895000000.000000000,265.000000000,4.102140501,-175.433805001,0.999596927
1775892524.074148,,,,,,,,,,,900000000.000000000,265.000000000,-4.038636194,-0.694807149,0.999592198,,,,,
1775892524.074233,,,,,,,,,,,,,,,,900000000.000000000,265.000000000,4.097578442,-170.253783510,0.999592198
