__time,/uav/cv/swing_angle/world_frame/cartesian/header/stamp/nanosec,/uav/cv/swing_angle/world_frame/cartesian/header/stamp/sec,/uav/cv/swing_angle/world_frame/cartesian/vector/x,/uav/cv/swing_angle/world_frame/cartesian/vector/y,/uav/cv/swing_angle/world_frame/cartesian/vector/z,/uav/eso/swing_angle/world_frame/cartesian/header/stamp/nanosec,/uav/eso/swing_angle/world_frame/cartesian/header/stamp/sec,/uav/eso/swing_angle/world_frame/cartesian/vector/x,/uav/eso/swing_angle/world_frame/cartesian/vector/y,/uav/eso/swing_angle/world_frame/cartesian/vector/z,/uav/eso_fusion/swing_angle/world_frame/cartesian/header/stamp/nanosec,/uav/eso_fusion/swing_angle/world_frame/cartesian/header/stamp/sec,/uav/eso_fusion/swing_angle/world_frame/cartesian/vector/x,/uav/eso_fusion/swing_angle/world_frame/cartesian/vector/y,/uav/eso_fusion/swing_angle/world_frame/cartesian/vector/z,/uav/truth/swing_angle/world_frame/cartesian/header/stamp/nanosec,/uav/truth/swing_angle/world_frame/cartesian/header/stamp/sec,/uav/truth/swing_angle/world_frame/cartesian/vector/x,/uav/truth/swing_angle/world_frame/cartesian/vector/y,/uav/truth/swing_angle/world_frame/cartesian/vector/z
1776355119.154606,,,,,,154526055.000000000,1776355119.000000000,2.693588742,-6.701512262,0.000000000,,,,,,,,,,
1776355119.155766,,,,,,,,,,,,,,,,285000000.000000000,99.000000000,1.935172750,-9.097059436,1.099070258
1776355119.156161,,,,,,,,,,,156107811.000000000,1776355119.000000000,2.731790259,-9.487850622,0.000000000,,,,,
1776355119.159564,,,,,,159501217.000000000,1776355119.000000000,2.605827484,-7.516523284,0.000000000,,,,,,,,,,
1776355119.160679,,,,,,,,,,,,,,,,290000000.000000000,99.000000000,1.929649699,-9.607627555,1.099004174
1776355119.161184,,,,,,,,,,,161097834.000000000,1776355119.000000000,2.631388438,-10.078291488,0.000000000,,,,,
1776355119.164556,,,,,,164501381.000000000,1776355119.000000000,2.526293289,-8.221185511,0.000000000,,,,,,,,,,
1776355119.165654,,,,,,,,,,,,,,,,295000000.000000000,99.000000000,1.923578231,-10.116104510,1.098934287
1776355119.166132,,,,,,,,,,,166097998.000000000,1776355119.000000000,2.527845051,-10.741474774,0.000000000,,,,,
1776355119.169544,,,,,,169496535.000000000,1776355119.000000000,2.454313968,-8.826164775,0.000000000,,,,,,,,,,
1776355119.170657,,,,,,,,,,,,,,,,300000000.000000000,99.000000000,1.916977909,-10.622376984,1.098860637
1776355119.171134,,,,,,,,,,,171098894.000000000,1776355119.000000000,2.427936806,-11.375921647,0.000000000,,,,,
1776355119.174552,,,,,,174501569.000000000,1776355119.000000000,2.389267487,-9.341266604,0.000000000,,,,,,,,,,
1776355119.175655,,,,,,,,,,,,,,,,305000000.000000000,99.000000000,1.909863205,-11.126337132,1.098783239
1776355119.176251,,,,,,,,,,,176183663.000000000,1776355119.000000000,2.335129380,-11.937587475,0.000000000,,,,,
1776355119.179549,,,,,,179502866.000000000,1776355119.000000000,2.330604323,-9.775474763,0.000000000,,,,,,,,,,
1776355119.180596,,,,,,,,,,,,,,,,310000000.000000000,99.000000000,1.902231545,-11.627880616,1.098702117
1776355119.181133,,,,,,,,,,,181099242.000000000,1776355119.000000000,2.250317776,-12.410671101,0.000000000,,,,,
1776355119.184551,,,,,,184503802.000000000,1776355119.000000000,2.277814384,-10.137023913,0.000000000,,,,,,,,,,
1776355119.185531,,,,,,,,,,,,,,,,315000000.000000000,99.000000000,1.894069048,-12.126913142,1.098617306
1776355119.186145,,,,,,,,,,,186107072.000000000,1776355119.000000000,2.173881900,-12.793349063,0.000000000,,,,,
1776355119.189550,,,,,,189500599.000000000,1776355119.000000000,2.230408760,-10.433440329,0.000000000,,,,,,,,,,
1776355119.190788,,,,,,,,,,,,,,,,320000000.000000000,99.000000000,1.885365921,-12.623325829,1.098528834
1776355119.191191,,,,,,,,,,,191109210.000000000,1776355119.000000000,2.105263716,-13.089783808,0.000000000,,,,,
1776355119.194587,,,,,,194518389.000000000,1776355119.000000000,2.187929803,-10.671623587,0.000000000,,,,,,,,,,
1776355119.196001,,,,,,,,,,,,,,,,325000000.000000000,99.000000000,1.876121806,-13.116991899,1.098436746
1776355119.196177,,,,,,,,,,,196123493.000000000,1776355119.000000000,2.044283303,-13.306927078,0.000000000,,,,,
1776355119.199578,,,,,,199517611.000000000,1776355119.000000000,2.149975674,-10.857885554,0.000000000,,,,,,,,,,
1776355119.200654,320000000.000000000,99.000000000,2.071057116,-12.721506349,1.000000000,,,,,,,,,,,,,,,
1776355119.201042,,,,,,,,,,,,,,,,330000000.000000000,99.000000000,1.866343063,-13.607781412,1.098341123
1776355119.201160,,,,,,,,,,,201108576.000000000,1776355119.000000000,1.984540884,-13.860364480,0.000000000,,,,,
1776355119.204559,,,,,,204506162.000000000,1776355119.000000000,2.107217985,-11.625644944,0.000000000,,,,,,,,,,
1776355119.205721,,,,,,,,,,,,,,,,335000000.000000000,99.000000000,1.856044593,-14.095578572,1.098242037
1776355119.206157,,,,,,,,,,,206111346.000000000,1776355119.000000000,1.928619363,-14.508957423,0.000000000,,,,,
1776355119.209568,,,,,,209510264.000000000,1776355119.000000000,2.069144279,-12.288710031,0.000000000,,,,,,,,,,
1776355119.210541,,,,,,,,,,,,,,,,340000000.000000000,99.000000000,1.845231893,-14.580283491,1.098139547
1776355119.211145,,,,,,,,,,,211107041.000000000,1776355119.000000000,1.877936646,-15.139901972,0.000000000,,,,,
1776355119.214557,,,,,,214509205.000000000,1776355119.000000000,2.035343018,-12.857266351,0.000000000,,,,,,,,,,
1776355119.215711,,,,,,,,,,,,,,,,345000000.000000000,99.000000000,1.833897599,-15.061803763,1.098033685
1776355119.216159,,,,,,,,,,,216108929.000000000,1776355119.000000000,1.833019787,-15.703534544,0.000000000,,,,,
1776355119.219560,,,,,,219510362.000000000,1776355119.000000000,2.005454369,-13.340654214,0.000000000,,,,,,,,,,
1776355119.220622,,,,,,,,,,,,,,,,350000000.000000000,99.000000000,1.822023617,-15.540045908,1.097924484
1776355119.221164,,,,,,,,,,,221106377.000000000,1776355119.000000000,1.793440311,-16.181337488,0.000000000,,,,,
1776355119.224556,,,,,,224509273.000000000,1776355119.000000000,1.979145189,-13.747438815,0.000000000,,,,,,,,,,
1776355119.225635,,,,,,,,,,,,,,,,355000000.000000000,99.000000000,1.809600314,-16.014913310,1.097811973
1776355119.226152,,,,,,,,,,,226110259.000000000,1776355119.000000000,1.759166453,-16.569948286,0.000000000,,,,,
1776355119.229570,,,,,,229510039.000000000,1776355119.000000000,1.956086363,-14.085462247,0.000000000,,,,,,,,,,
1776355119.230871,,,,,,,,,,,,,,,,360000000.000000000,99.000000000,1.796629485,-16.486305366,1.097696242
1776355119.231171,,,,,,,,,,,231116014.000000000,1776355119.000000000,1.729387533,-16.872924455,0.000000000,,,,,
1776355119.234769,,,,,,234563663.000000000,1776355119.000000000,1.935963830,-14.361912364,0.000000000,,,,,,,,,,
1776355119.235885,,,,,,,,,,,,,,,,365000000.000000000,99.000000000,1.783121810,-16.954135406,1.097577356
1776355119.236181,,,,,,,,,,,236128354.000000000,1776355119.000000000,1.704148505,-17.096805778,0.000000000,,,,,
1776355119.239367,360000000.000000000,99.000000000,2.009270899,-16.570884946,1.000000000,,,,,,,,,,,,,,,
1776355119.239559,,,,,,239501268.000000000,1776355119.000000000,1.909253642,-15.160768535,0.000000000,,,,,,,,,,
1776355119.240926,,,,,,,,,,,,,,,,370000000.000000000,99.000000000,1.769089115,-17.418337517,1.097455307
1776355119.241144,,,,,,,,,,,241066530.000000000,1776355119.000000000,1.676744382,-17.624456894,0.000000000,,,,,
1776355119.244571,,,,,,244515742.000000000,1776355119.000000000,1.885928928,-15.851945471,0.000000000,,,,,,,,,,
1776355119.245631,,,,,,,,,,,,,,,,375000000.000000000,99.000000000,1.754538569,-17.878866219,1.097329997
1776355119.246164,,,,,,,,,,,246119393.000000000,1776355119.000000000,1.650732190,-18.234596873,0.000000000,,,,,
1776355119.249573,,,,,,249514834.000000000,1776355119.000000000,1.865672050,-16.445884140,0.000000000,,,,,,,,,,
1776355119.250711,,,,,,,,,,,,,,,,380000000.000000000,99.000000000,1.739469290,-18.335666094,1.097201382
1776355119.251162,,,,,,,,,,,251118515.000000000,1776355119.000000000,1.627326831,-18.823719975,0.000000000,,,,,
1776355119.254566,,,,,,254516450.000000000,1776355119.000000000,1.848195720,-16.952149068,0.000000000,,,,,,,,,,
1776355119.255546,,,,,,,,,,,,,,,,385000000.000000000,99.000000000,1.723875267,-18.788664234,1.097069472
1776355119.256157,,,,,,,,,,,256117256.000000000,1776355119.000000000,1.607235406,-19.346976850,0.000000000,,,,,
1776355119.259564,,,,,,259514380.000000000,1776355119.000000000,1.833250202,-17.379526644,0.000000000,,,,,,,,,,
1776355119.260513,,,,,,,,,,,,,,,,390000000.000000000,99.000000000,1.707750219,-19.237777052,1.096934312
1776355119.261167,,,,,,,,,,,261114374.000000000,1776355119.000000000,1.590352744,-19.787975363,0.000000000,,,,,
1776355119.264578,,,,,,264518222.000000000,1776355119.000000000,1.820604895,-17.736068610,0.000000000,,,,,,,,,,
1776355119.265648,,,,,,,,,,,,,,,,395000000.000000000,99.000000000,1.691097429,-19.682937036,1.096795905
1776355119.266162,,,,,,,,,,,266118456.000000000,1776355119.000000000,1.576709655,-20.143897901,0.000000000,,,,,
1776355119.269585,,,,,,269517825.000000000,1776355119.000000000,1.810034779,-18.029155062,0.000000000,,,,,,,,,,
1776355119.270717,,,,,,,,,,,,,,,,400000000.000000000,99.000000000,1.673922159,-20.124083682,1.096654270
1776355119.271184,,,,,,,,,,,271126286.000000000,1776355119.000000000,1.566107878,-20.418368572,0.000000000,,,,,
1776355119.274614,,,,,,274536136.000000000,1776355119.000000000,1.801349465,-18.265522686,0.000000000,,,,,,,,,,
1776355119.275740,,,,,,,,,,,,,,,,405000000.000000000,99.000000000,1.656230611,-20.561164676,1.096509386
1776355119.276241,,,,,,,,,,,276143205.000000000,1776355119.000000000,1.558225345,-20.617917652,0.000000000,,,,,
1776355119.278481,400000000.000000000,99.000000000,1.941603152,-20.237718460,1.000000000,,,,,,,,,,,,,,,
1776355119.279562,,,,,,279519736.000000000,1776355119.000000000,1.784218928,-19.001360536,0.000000000,,,,,,,,,,
1776355119.280648,,,,,,,,,,,,,,,,410000000.000000000,99.000000000,1.638027856,-20.994130335,1.096361199
1776355119.281190,,,,,,,,,,,281123257.000000000,1776355119.000000000,1.545876496,-21.107229777,0.000000000,,,,,
1776355119.284580,,,,,,284524350.000000000,1776355119.000000000,1.769659246,-19.636369971,0.000000000,,,,,,,,,,
1776355119.285597,,,,,,,,,,,,,,,,415000000.000000000,99.000000000,1.619315983,-21.422934010,1.096209633
1776355119.286173,,,,,,,,,,,286126898.000000000,1776355119.000000000,1.533249708,-21.675731510,0.000000000,,,,,
1776355119.289566,,,,,,289518972.000000000,1776355119.000000000,1.757402645,-20.180395007,0.000000000,,,,,,,,,,
1776355119.290524,,,,,,,,,,,,,,,,420000000.000000000,99.000000000,1.600089811,-21.847512125,1.096054712
1776355119.291162,,,,,,,,,,,291125590.000000000,1776355119.000000000,1.521918865,-22.224982349,0.000000000,,,,,
1776355119.294569,,,,,,294521110.000000000,1776355119.000000000,1.747224451,-20.642474728,0.000000000,,,,,,,,,,
1776355119.295690,,,,,,,,,,,,,,,,425000000.000000000,99.000000000,1.580339604,-22.267786778,1.095896530
1776355119.296185,,,,,,,,,,,296131886.000000000,1776355119.000000000,1.512680300,-22.712098350,0.000000000,,,,,
1776355119.299571,,,,,,299524421.000000000,1776355119.000000000,1.738926321,-21.030895912,0.000000000,,,,,,,,,,
1776355119.300596,,,,,,,,,,,,,,,,430000000.000000000,99.000000000,1.560061716,-22.683681008,1.095735186
1776355119.301179,,,,,,,,,,,301129064.000000000,1776355119.000000000,1.505718239,-23.121537623,0.000000000,,,,,
1776355119.304578,,,,,,304526259.000000000,1776355119.000000000,1.732325606,-21.353248907,0.000000000,,,,,,,,,,
1776355119.305571,,,,,,,,,,,,,,,,435000000.000000000,99.000000000,1.539262763,-23.095140451,1.095570688
1776355119.306168,,,,,,,,,,,306127224.000000000,1776355119.000000000,1.500991435,-23.450580903,0.000000000,,,,,
1776355119.309597,,,,,,309528387.000000000,1776355119.000000000,1.727254348,-21.616491454,0.000000000,,,,,,,,,,
1776355119.310847,,,,,,,,,,,,,,,,440000000.000000000,99.000000000,1.517951898,-23.502110412,1.095403041
1776355119.311200,,,,,,,,,,,311137960.000000000,1776355119.000000000,1.498418366,-23.702609325,0.000000000,,,,,
1776355119.314605,,,,,,314538401.000000000,1776355119.000000000,1.723562806,-21.826959710,0.000000000,,,,,,,,,,
1776355119.315721,,,,,,,,,,,,,,,,445000000.000000000,99.000000000,1.496137732,-23.904530442,1.095232261
1776355119.316238,,,,,,,,,,,316156322.000000000,1776355119.000000000,1.497749181,-23.883945289,0.000000000,,,,,
1776355119.319611,,,,,,319543646.000000000,1776355119.000000000,1.721108217,-21.990456060,0.000000000,,,,,,,,,,
1776355119.320626,,,,,,,,,,,,,,,,450000000.000000000,99.000000000,1.473820713,-24.302326476,1.095058411
1776355119.321170,,,,,,,,,,,321128007.000000000,1776355119.000000000,1.498727019,-24.001696695,0.000000000,,,,,
1776355119.321472,440000000.000000000,99.000000000,1.645461282,-23.634980826,1.000000000,,,,,,,,,,,,,,,
1776355119.324586,,,,,,324529320.000000000,1776355119.000000000,1.675338238,-22.621864785,0.000000000,,,,,,,,,,
1776355119.325650,,,,,,,,,,,,,,,,455000000.000000000,99.000000000,1.450996783,-24.695417969,1.094881588
1776355119.326177,,,,,,,,,,,326134725.000000000,1776355119.000000000,1.472399593,-24.394021168,0.000000000,,,,,
1776355119.329585,,,,,,329530105.000000000,1776355119.000000000,1.635062486,-23.164638730,0.000000000,,,,,,,,,,
1776355119.330841,,,,,,,,,,,,,,,,460000000.000000000,99.000000000,1.427663370,-25.083714560,1.094701930
1776355119.331305,,,,,,,,,,,331197588.000000000,1776355119.000000000,1.436076997,-24.865561356,0.000000000,,,,,
1776355119.334595,,,,,,334535590.000000000,1776355119.000000000,1.599780579,-23.627538331,0.000000000,,,,,,,,,,
1776355119.335616,,,,,,,,,,,,,,,,465000000.000000000,99.000000000,1.403819391,-25.467126856,1.094519581
1776355119.336170,,,,,,,,,,,336133320.000000000,1776355119.000000000,1.398263143,-25.324914448,0.000000000,,,,,
1776355119.339586,,,,,,339533851.000000000,1776355119.000000000,1.569041776,-24.018600576,0.000000000,,,,,,,,,,
1776355119.340769,,,,,,,,,,,,,,,,470000000.000000000,99.000000000,1.379468678,-25.845571030,1.094334660
1776355119.341180,,,,,,,,,,,341133113.000000000,1776355119.000000000,1.362746653,-25.732029046,0.000000000,,,,,
1776355119.344610,,,,,,344539095.000000000,1776355119.000000000,1.542430524,-24.345188113,0.000000000,,,,,,,,,,
1776355119.345783,,,,,,,,,,,,,,,,475000000.000000000,99.000000000,1.354615870,-26.218972066,1.094147234
1776355119.346196,,,,,,,,,,,346140251.000000000,1776355119.000000000,1.331197616,-26.071966792,0.000000000,,,,,
1776355119.349608,,,,,,349535812.000000000,1776355119.000000000,1.519560185,-24.614043693,0.000000000,,,,,,,,,,
1776355119.350762,,,,,,,,,,,,,,,,480000000.000000000,99.000000000,1.329264008,-26.587246306,1.093957391
1776355119.351205,,,,,,,,,,,351144384.000000000,1776355119.000000000,1.303929530,-26.342023368,0.000000000,,,,,
1776355119.354635,,,,,,354554064.000000000,1776355119.000000000,1.500061134,-24.831333001,0.000000000,,,,,,,,,,
1776355119.355793,,,,,,,,,,,,,,,,485000000.000000000,99.000000000,1.303415290,-26.950304526,1.093765256
1776355119.356216,,,,,,,,,,,356157545.000000000,1776355119.000000000,1.281206822,-26.545063813,0.000000000,,,,,
1776355119.359241,480000000.000000000,99.000000000,1.567945268,-26.725699958,1.000000000,,,,,,,,,,,,,,,
1776355119.359608,,,,,,359544398.000000000,1776355119.000000000,1.471984681,-25.466293657,0.000000000,,,,,,,,,,
1776355119.360648,,,,,,,,,,,,,,,,490000000.000000000,99.000000000,1.277071774,-27.308049060,1.093570991
1776355119.361187,,,,,,,,,,,361135192.000000000,1776355119.000000000,1.255101127,-26.987767457,0.000000000,,,,,
1776355119.364627,,,,,,364544391.000000000,1776355119.000000000,1.447844459,-26.013337430,0.000000000,,,,,,,,,,
1776355119.365726,,,,,,,,,,,,,,,,495000000.000000000,99.000000000,1.250232946,-27.660388302,1.093374747
1776355119.366201,,,,,,,,,,,366144445.000000000,1776355119.000000000,1.230025390,-27.492371358,0.000000000,,,,,
1776355119.369592,,,,,,369542060.000000000,1776355119.000000000,1.427259313,-26.481130583,0.000000000,,,,,,,,,,
1776355119.370793,,,,,,,,,,,,,,,,500000000.000000000,99.000000000,1.222892012,-28.007230987,1.093176665
1776355119.371193,,,,,,,,,,,371139098.000000000,1776355119.000000000,1.207933106,-27.976058172,0.000000000,,,,,
1776355119.374589,,,,,,374540210.000000000,1776355119.000000000,1.409897481,-26.877605590,0.000000000,,,,,,,,,,
1776355119.375622,,,,,,,,,,,,,,,,505000000.000000000,99.000000000,1.195043851,-28.348487716,1.092976890
1776355119.376196,,,,,,,,,,,376142489.000000000,1776355119.000000000,1.189383487,-28.403207818,0.000000000,,,,,
1776355119.379588,,,,,,379539633.000000000,1776355119.000000000,1.395444867,-27.210040769,0.000000000,,,,,,,,,,
1776355119.380657,,,,,,,,,,,,,,,,510000000.000000000,99.000000000,1.166690265,-28.684071254,1.092775550
1776355119.381181,,,,,,,,,,,381139416.000000000,1776355119.000000000,1.174393108,-28.761063099,0.000000000,,,,,
1776355119.384625,,,,,,384537873.000000000,1776355119.000000000,1.383612887,-27.485099105,0.000000000,,,,,,,,,,
1776355119.385563,,,,,,,,,,,,,,,,515000000.000000000,99.000000000,1.137846929,-29.013899363,1.092572745
1776355119.386194,,,,,,,,,,,386150483.000000000,1776355119.000000000,1.162960079,-29.047891478,0.000000000,,,,,
1776355119.389575,,,,,,389507213.000000000,1776355119.000000000,1.374127060,-27.708876012,0.000000000,,,,,,,,,,
1776355119.390778,,,,,,,,,,,,,,,,520000000.000000000,99.000000000,1.108525666,-29.337879370,1.092368622
1776355119.391204,,,,,,,,,,,391148693.000000000,1776355119.000000000,1.154865226,-29.267126214,0.000000000,,,,,
1776355119.394651,,,,,,394573604.000000000,1776355119.000000000,1.366750327,-27.886943844,0.000000000,,,,,,,,,,
1776355119.395710,,,,,,,,,,,,,,,,525000000.000000000,99.000000000,1.078735374,-29.655915950,1.092163369
1776355119.396214,,,,,,,,,,,396158507.000000000,1776355119.000000000,1.149734444,-29.424284045,0.000000000,,,,,
1776355119.399637,,,,,,399564008.000000000,1776355119.000000000,1.361260510,-28.024385711,0.000000000,,,,,,,,,,
1776355119.400900,,,,,,,,,,,,,,,,530000000.000000000,99.000000000,1.048482720,-29.967912998,1.091957189
1776355119.401224,,,,,,,,,,,401159623.000000000,1776355119.000000000,1.147081221,-29.525549486,0.000000000,,,,,
1776355119.401305,520000000.000000000,99.000000000,1.264160130,-29.493364123,1.000000000,,,,,,,,,,,,,,,
1776355119.404612,,,,,,404547177.000000000,1776355119.000000000,1.311886353,-28.540986725,0.000000000,,,,,,,,,,
1776355119.405612,,,,,,,,,,,,,,,,535000000.000000000,99.000000000,1.017773685,-30.273784171,1.091750252
1776355119.406187,,,,,,,,,,,406146850.000000000,1776355119.000000000,1.117230439,-29.847211883,0.000000000,,,,,
1776355119.409606,,,,,,409547782.000000000,1776355119.000000000,1.268625384,-28.983615552,0.000000000,,,,,,,,,,
1776355119.410773,,,,,,,,,,,,,,,,540000000.000000000,99.000000000,0.986610577,-30.573440843,1.091542730
1776355119.411181,,,,,,,,,,,411147145.000000000,1776355119.000000000,1.077995297,-30.230540675,0.000000000,,,,,
1776355119.414600,,,,,,414547055.000000000,1776355119.000000000,1.230922432,-29.359671161,0.000000000,,,,,,,,,,
1776355119.415613,,,,,,,,,,,,,,,,545000000.000000000,99.000000000,0.954995253,-30.866793908,1.091334818
1776355119.416188,,,,,,,,,,,416147519.000000000,1776355119.000000000,1.037802600,-30.601520010,0.000000000,,,,,
1776355119.419605,,,,,,419547389.000000000,1776355119.000000000,1.198262285,-29.675938865,0.000000000,,,,,,,,,,
1776355119.420554,,,,,,,,,,,,,,,,550000000.000000000,99.000000000,0.922935389,-31.153756809,1.091126706
1776355119.421188,,,,,,,,,,,421146822.000000000,1776355119.000000000,1.000533119,-30.927895789,0.000000000,,,,,
1776355119.424595,,,,,,424549618.000000000,1776355119.000000000,1.170170736,-29.938630151,0.000000000,,,,,,,,,,
1776355119.425593,,,,,,,,,,,,,,,,555000000.000000000,99.000000000,0.890443999,-31.434249313,1.090918556
1776355119.426195,,,,,,,,,,,426150914.000000000,1776355119.000000000,0.967773517,-31.197872374,0.000000000,,,,,
1776355119.429638,,,,,,429552577.000000000,1776355119.000000000,1.146212190,-30.153427827,0.000000000,,,,,,,,,,
1776355119.430736,,,,,,,,,,,,,,,,560000000.000000000,99.000000000,0.857527417,-31.708189113,1.090710539
1776355119.431211,,,,,,,,,,,431158173.000000000,1776355119.000000000,0.940079088,-31.409629877,0.000000000,,,,,
1776355119.434870,,,,,,434773597.000000000,1776355119.000000000,1.125991450,-30.325531567,0.000000000,,,,,,,,,,
1776355119.435971,,,,,,,,,,,,,,,,565000000.000000000,99.000000000,0.824195306,-31.975493079,1.090502848
1776355119.436228,,,,,,,,,,,436169209.000000000,1776355119.000000000,0.917320980,-31.565715406,0.000000000,,,,,
1776355119.438411,560000000.000000000,99.000000000,1.193949313,-31.771474715,1.000000000,,,,,,,,,,,,,,,
1776355119.439609,,,,,,439552916.000000000,1776355119.000000000,1.098607661,-30.801395410,0.000000000,,,,,,,,,,
1776355119.440702,,,,,,,,,,,,,,,,570000000.000000000,99.000000000,0.790461370,-32.236080508,1.090295675
1776355119.441240,,,,,,,,,,,441166317.000000000,1776355119.000000000,0.892435665,-31.892857504,0.000000000,,,,,
1776355119.444614,,,,,,444554282.000000000,1776355119.000000000,1.075323940,-31.208892588,0.000000000,,,,,,,,,,
1776355119.445582,,,,,,,,,,,,,,,,575000000.000000000,99.000000000,0.756340649,-32.489875332,1.090089200
1776355119.446174,,,,,,,,,,,446136750.000000000,1776355119.000000000,0.869156921,-32.260761163,0.000000000,,,,,
1776355119.449610,,,,,,449556751.000000000,1776355119.000000000,1.055743614,-31.554890010,0.000000000,,,,,,,,,,
1776355119.450667,,,,,,,,,,,,,,,,580000000.000000000,99.000000000,0.721842735,-32.736798925,1.089883617
1776355119.451200,,,,,,,,,,,451154360.000000000,1776355119.000000000,0.849328278,-32.609169140,0.000000000,,,,,
1776355119.454606,,,,,,454555562.000000000,1776355119.000000000,1.039516337,-31.845680385,0.000000000,,,,,,,,,,
1776355119.455542,,,,,,,,,,,,,,,,585000000.000000000,99.000000000,0.686975672,-32.976772912,1.089679141
1776355119.456192,,,,,,,,,,,456154915.000000000,1776355119.000000000,0.833227406,-32.912339092,0.000000000,,,,,
1776355119.459605,,,,,,459554243.000000000,1776355119.000000000,1.026300833,-32.087020110,0.000000000,,,,,,,,,,
1776355119.460630,,,,,,,,,,,,,,,,590000000.000000000,99.000000000,0.651751326,-33.209723214,1.089475974
1776355119.461185,,,,,,,,,,,461153155.000000000,1776355119.000000000,0.821061165,-33.161377389,0.000000000,,,,,
1776355119.464632,,,,,,464555410.000000000,1776355119.000000000,1.015784315,-32.284172930,0.000000000,,,,,,,,,,
1776355119.465661,,,,,,,,,,,,,,,,595000000.000000000,99.000000000,0.616181067,-33.435581428,1.089274291
1776355119.466192,,,,,,,,,,,466156786.000000000,1776355119.000000000,0.812469521,-33.355660518,0.000000000,,,,,
1776355119.469631,,,,,,469563470.000000000,1776355119.000000000,1.007692205,-32.441939515,0.000000000,,,,,,,,,,
1776355119.470854,,,,,,,,,,,,,,,,600000000.000000000,99.000000000,0.580272214,-33.654277299,1.089074281
1776355119.471220,,,,,,,,,,,471165959.000000000,1776355119.000000000,0.807381866,-33.498081013,0.000000000,,,,,
1776355119.474683,,,,,,474611603.000000000,1776355119.000000000,1.001777763,-32.564701959,0.000000000,,,,,,,,,,
1776355119.475858,,,,,,,,,,,,,,,,605000000.000000000,99.000000000,0.544032124,-33.865738944,1.088876153
1776355119.476241,,,,,,,,,,,476178969.000000000,1776355119.000000000,0.805228252,-33.593263346,0.000000000,,,,,
1776355119.479524,600000000.000000000,99.000000000,0.896096138,-33.762517840,1.000000000,,,,,,,,,,,,,,,
1776355119.479602,,,,,,479545931.000000000,1776355119.000000000,0.997797302,-32.656463545,0.000000000,,,,,,,,,,
1776355119.480674,,,,,,,,,,,,,,,,610000000.000000000,99.000000000,0.507473587,-34.069894514,1.088680135
1776355119.481205,,,,,,,,,,,481159734.000000000,1776355119.000000000,0.776738218,-33.840469632,0.000000000,,,,,
1776355119.484664,,,,,,484574264.000000000,1776355119.000000000,0.950850387,-33.019526346,0.000000000,,,,,,,,,,
1776355119.485707,,,,,,,,,,,,,,,,615000000.000000000,99.000000000,0.470618050,-34.266680367,1.088486421
1776355119.486228,,,,,,,,,,,486172604.000000000,1776355119.000000000,0.739260093,-34.126058482,0.000000000,,,,,
1776355119.489599,,,,,,489554827.000000000,1776355119.000000000,0.909957589,-33.328207208,0.000000000,,,,,,,,,,
1776355119.490675,,,,,,,,,,,,,,,,620000000.000000000,99.000000000,0.433482470,-34.456034260,1.088295193
1776355119.491226,,,,,,,,,,,491175654.000000000,1776355119.000000000,0.701428407,-34.397273762,0.000000000,,,,,
1776355119.494612,,,,,,494562206.000000000,1776355119.000000000,0.874578642,-33.588062501,0.000000000,,,,,,,,,,
1776355119.495614,,,,,,,,,,,,,,,,625000000.000000000,99.000000000,0.396081279,-34.637897153,1.088106624
1776355119.496202,,,,,,,,,,,496163473.000000000,1776355119.000000000,0.666589639,-34.631803554,0.000000000,,,,,
1776355119.499619,,,,,,499563673.000000000,1776355119.000000000,0.844186319,-33.804193826,0.000000000,,,,,,,,,,
1776355119.500560,,,,,,,,,,,,,,,,630000000.000000000,99.000000000,0.358431490,-34.812209252,1.087920904
1776355119.501192,,,,,,,,,,,501158837.000000000,1776355119.000000000,0.636556150,-34.821939720,0.000000000,,,,,
1776355119.504612,,,,,,504563487.000000000,1776355119.000000000,0.818296236,-33.981265154,0.000000000,,,,,,,,,,
1776355119.505730,,,,,,,,,,,,,,,,635000000.000000000,99.000000000,0.320548150,-34.978912000,1.087738232
1776355119.506384,,,,,,,,,,,506168711.000000000,1776355119.000000000,0.611496195,-34.966755905,0.000000000,,,,,
1776355119.509629,,,,,,509565014.000000000,1776355119.000000000,0.796483731,-34.123548152,0.000000000,,,,,,,,,,
1776355119.510830,,,,,,,,,,,,,,,,640000000.000000000,99.000000000,0.282446589,-35.137943153,1.087558842
1776355119.511307,,,,,,,,,,,511211012.000000000,1776355119.000000000,0.591644730,-35.068834660,0.000000000,,,,,
1776355119.514708,,,,,,514595841.000000000,1776355119.000000000,0.778360447,-34.234938447,0.000000000,,,,,,,,,,
1776355119.515861,,,,,,,,,,,,,,,,645000000.000000000,99.000000000,0.244145213,-35.289239791,1.087382993
1776355119.516231,,,,,,,,,,,516179721.000000000,1776355119.000000000,0.576380839,-35.131864918,0.000000000,,,,,
1776355119.519497,640000000.000000000,99.000000000,0.377467367,-35.149300487,1.000000000,,,,,,,,,,,,,,,
1776355119.519621,,,,,,519565783.000000000,1776355119.000000000,0.685752006,-34.526992876,0.000000000,,,,,,,,,,
1776355119.520645,,,,,,,,,,,,,,,,650000000.000000000,99.000000000,0.205662242,-35.432745881,1.087210923
1776355119.521218,,,,,,,,,,,521166067.000000000,1776355119.000000000,0.515174283,-35.295370451,0.000000000,,,,,
1776355119.524618,,,,,,524567971.000000000,1776355119.000000000,0.604011349,-34.773774629,0.000000000,,,,,,,,,,
1776355119.525703,,,,,,,,,,,,,,,,655000000.000000000,99.000000000,0.167019376,-35.568414863,1.087042808
1776355119.526204,,,,,,,,,,,526168415.000000000,1776355119.000000000,0.438021789,-35.481004506,0.000000000,,,,,
1776355119.529760,,,,,,529708505.000000000,1776355119.000000000,0.532183501,-34.980002389,0.000000000,,,,,,,,,,
1776355119.530639,,,,,,,,,,,,,,,,660000000.000000000,99.000000000,0.128234243,-35.696201107,1.086878810
1776355119.531196,,,,,,,,,,,531169752.000000000,1776355119.000000000,0.359725535,-35.652740033,0.000000000,,,,,
1776355119.534619,,,,,,534568409.000000000,1776355119.000000000,0.469375385,-35.149975650,0.000000000,,,,,,,,,,
1776355119.535686,,,,,,,,,,,,,,,,665000000.000000000,99.000000000,0.089320498,-35.816058773,1.086719096
1776355119.536219,,,,,,,,,,,536174946.000000000,1776355119.000000000,0.286643487,-35.795681121,0.000000000,,,,,
1776355119.539620,,,,,,539573393.000000000,1776355119.000000000,0.414744433,-35.287632821,0.000000000,,,,,,,,,,
1776355119.540760,,,,,,,,,,,,,,,,670000000.000000000,99.000000000,0.050297866,-35.927939073,1.086563870
1776355119.541215,,,,,,,,,,,541169048.000000000,1776355119.000000000,0.222075530,-35.905072632,0.000000000,,,,,
1776355119.544612,,,,,,544569650.000000000,1776355119.000000000,0.367515791,-35.396567676,0.000000000,,,,,,,,,,
1776355119.545671,,,,,,,,,,,,,,,,675000000.000000000,99.000000000,0.011185709,-36.031793758,1.086413355
1776355119.546227,,,,,,,,,,,546177319.000000000,1776355119.000000000,0.166199671,-35.980791701,0.000000000,,,,,
1776355119.549634,,,,,,549568030.000000000,1776355119.000000000,0.327022543,-35.480065837,0.000000000,,,,,,,,,,
1776355119.550725,,,,,,,,,,,,,,,,680000000.000000000,99.000000000,-0.027995632,-36.127568911,1.086267824
1776355119.551233,,,,,,,,,,,551177283.000000000,1776355119.000000000,0.119457735,-36.024949718,0.000000000,,,,,
1776355119.554654,,,,,,554582053.000000000,1776355119.000000000,0.292641448,-35.541099362,0.000000000,,,,,,,,,,
1776355119.555960,,,,,,,,,,,,,,,,685000000.000000000,99.000000000,-0.067226543,-36.215216163,1.086127540
1776355119.556291,,,,,,,,,,,556198881.000000000,1776355119.000000000,0.080840458,-36.040746122,0.000000000,,,,,
1776355119.559647,,,,,,559582537.000000000,1776355119.000000000,0.263760627,-35.582380804,0.000000000,,,,,,,,,,
1776355119.560856,,,,,,,,,,,,,,,,690000000.000000000,99.000000000,-0.106488300,-36.294700553,1.085992685
1776355119.561310,,,,,,,,,,,561186840.000000000,1776355119.000000000,0.049755792,-36.031510057,0.000000000,,,,,
1776355119.561960,680000000.000000000,99.000000000,0.102644734,-36.158927183,1.000000000,,,,,,,,,,,,,,,
1776355119.564640,,,,,,564584044.000000000,1776355119.000000000,0.198595807,-35.757817881,0.000000000,,,,,,,,,,
1776355119.565609,,,,,,,,,,,,,,,,695000000.000000000,99.000000000,-0.145763394,-36.365991872,1.085863398
1776355119.566230,,,,,,,,,,,566179619.000000000,1776355119.000000000,-0.000925878,-36.099070638,0.000000000,,,,,
1776355119.569801,,,,,,569748838.000000000,1776355119.000000000,0.142074365,-35.902818390,0.000000000,,,,,,,,,,
1776355119.570647,,,,,,,,,,,,,,,,700000000.000000000,99.000000000,-0.185034572,-36.429058539,1.085739823
1776355119.571212,,,,,,,,,,,571176025.000000000,1776355119.000000000,-0.055513539,-36.186318541,0.000000000,,,,,
1776355119.574629,,,,,,574577218.000000000,1776355119.000000000,0.093405323,-36.020703860,0.000000000,,,,,,,,,,
1776355119.575594,,,,,,,,,,,,,,,,705000000.000000000,99.000000000,-0.224278532,-36.483864561,1.085622149
1776355119.576215,,,,,,,,,,,576176851.000000000,1776355119.000000000,-0.107253350,-36.267039140,0.000000000,,,,,
1776355119.579629,,,,,,579577653.000000000,1776355119.000000000,0.051822740,-36.114504183,0.000000000,,,,,,,,,,
1776355119.580750,,,,,,,,,,,,,,,,710000000.000000000,99.000000000,-0.263464541,-36.530369442,1.085510630
1776355119.581222,,,,,,,,,,,581180462.000000000,1776355119.000000000,-0.152535586,-36.330141264,0.000000000,,,,,
1776355119.584763,,,,,,584708737.000000000,1776355119.000000000,0.016623735,-36.186980004,0.000000000,,,,,,,,,,
1776355119.585569,,,,,,,,,,,,,,,,715000000.000000000,99.000000000,-0.302569956,-36.568535562,1.085405520
1776355119.586227,,,,,,,,,,,586178852.000000000,1776355119.000000000,-0.190801008,-36.372013184,0.000000000,,,,,
1776355119.589650,,,,,,589581658.000000000,1776355119.000000000,-0.012799520,-36.240639778,0.000000000,,,,,,,,,,
1776355119.590732,,,,,,,,,,,,,,,,720000000.000000000,99.000000000,-0.341577116,-36.598329050,1.085307049
1776355119.591242,,,,,,,,,,,591183987.000000000,1776355119.000000000,-0.221365593,-36.392592877,0.000000000,,,,,
1776355119.594719,,,,,,594610963.000000000,1776355119.000000000,-0.036998992,-36.277776118,0.000000000,,,,,,,,,,
1776355119.595908,,,,,,,,,,,,,,,,725000000.000000000,99.000000000,-0.380471226,-36.619725335,1.085215386
1776355119.596281,,,,,,,,,,,596216959.000000000,1776355119.000000000,-0.245205010,-36.393234803,0.000000000,,,,,
1776355119.598599,720000000.000000000,99.000000000,-0.152832940,-36.675640963,1.000000000,,,,,,,,,,,,,,,
1776355119.599621,,,,,,599576636.000000000,1776355119.000000000,-0.094848473,-36.377968653,0.000000000,,,,,,,,,,
1776355119.600802,,,,,,,,,,,,,,,,730000000.000000000,99.000000000,-0.419232451,-36.632704660,1.085130669
1776355119.601238,,,,,,,,,,,601186980.000000000,1776355119.000000000,-0.287082408,-36.426493160,0.000000000,,,,,
1776355119.604630,,,,,,604580848.000000000,1776355119.000000000,-0.144636310,-36.457711778,0.000000000,,,,,,,,,,
1776355119.605654,,,,,,,,,,,,,,,,735000000.000000000,99.000000000,-0.457837827,-36.637250488,1.085053014
1776355119.606217,,,,,,,,,,,606183227.000000000,1776355119.000000000,-0.333116687,-36.463837693,0.000000000,,,,,
1776355119.609648,,,,,,609590281.000000000,1776355119.000000000,-0.187101853,-36.519376666,0.000000000,,,,,,,,,,
1776355119.610546,,,,,,,,,,,,,,,,740000000.000000000,99.000000000,-0.496260251,-36.633339092,1.084982588
1776355119.611223,,,,,,,,,,,611187960.000000000,1776355119.000000000,-0.375924258,-36.492601259,0.000000000,,,,,
1776355119.614636,,,,,,614584533.000000000,1776355119.000000000,-0.222931286,-36.565109933,0.000000000,,,,,,,,,,
1776355119.615708,,,,,,,,,,,,,,,,745000000.000000000,99.000000000,-0.534471134,-36.620945049,1.084919603
1776355119.616230,,,,,,,,,,,616185920.000000000,1776355119.000000000,-0.413271379,-36.507970931,0.000000000,,,,,
1776355119.619631,,,,,,619584707.000000000,1776355119.000000000,-0.252802558,-36.596866076,0.000000000,,,,,,,,,,
1776355119.620567,,,,,,,,,,,,,,,,750000000.000000000,99.000000000,-0.572448285,-36.600047135,1.084864263
1776355119.621218,,,,,,,,,,,621180502.000000000,1776355119.000000000,-0.443579486,-36.508865782,0.000000000,,,,,
1776355119.624639,,,,,,624586124.000000000,1776355119.000000000,-0.277336388,-36.616418199,0.000000000,,,,,,,,,,
1776355119.625531,,,,,,,,,,,,,,,,755000000.000000000,99.000000000,-0.610179235,-36.570630629,1.084816736
1776355119.626242,,,,,,,,,,,626188953.000000000,1776355119.000000000,-0.467384357,-36.495843987,0.000000000,,,,,
1776355119.629667,,,,,,629590828.000000000,1776355119.000000000,-0.297057074,-36.625377274,0.000000000,,,,,,,,,,
1776355119.630875,,,,,,,,,,,,,,,,760000000.000000000,99.000000000,-0.647653827,-36.532683386,1.084777159
1776355119.631264,,,,,,,,,,,631201563.000000000,1776355119.000000000,-0.484301474,-36.470279202,0.000000000,,,,,
1776355119.634735,,,,,,634623238.000000000,1776355119.000000000,-0.312435162,-36.625195528,0.000000000,,,,,,,,,,
1776355119.635724,,,,,,,,,,,,,,,,765000000.000000000,99.000000000,-0.684853963,-36.486197492,1.084745632
1776355119.636267,,,,,,,,,,,636200505.000000000,1776355119.000000000,-0.495627016,-36.433808411,0.000000000,,,,,
1776355119.639740,,,,,,639659046.000000000,1776355119.000000000,-0.323958574,-36.617184294,0.000000000,,,,,,,,,,
1776355119.640308,760000000.000000000,99.000000000,-0.384845773,-36.605785908,1.000000000,,,,,,,,,,,,,,,
1776355119.641023,,,,,,,,,,,,,,,,770000000.000000000,99.000000000,-0.721755237,-36.431167148,1.084722252
1776355119.641252,,,,,,,,,,,641195779.000000000,1776355119.000000000,-0.523948853,-36.381336412,0.000000000,,,,,
1776355119.644663,,,,,,644593985.000000000,1776355119.000000000,-0.366874073,-36.592047384,0.000000000,,,,,,,,,,
1776355119.645660,,,,,,,,,,,,,,,,775000000.000000000,99.000000000,-0.758329873,-36.367586104,1.084707135
1776355119.646232,,,,,,,,,,,646191083.000000000,1776355119.000000000,-0.556628295,-36.318565029,0.000000000,,,,,
1776355119.649642,,,,,,649587466.000000000,1776355119.000000000,-0.403205274,-36.562395994,0.000000000,,,,,,,,,,
1776355119.650718,,,,,,,,,,,,,,,,780000000.000000000,99.000000000,-0.794552013,-36.295443630,1.084700433
1776355119.651244,,,,,,,,,,,651192089.000000000,1776355119.000000000,-0.586797412,-36.248961030,0.000000000,,,,,
1776355119.654642,,,,,,654581206.000000000,1776355119.000000000,-0.433570104,-36.529091686,0.000000000,,,,,,,,,,
1776355119.655626,,,,,,,,,,,,,,,,785000000.000000000,99.000000000,-0.830399884,-36.214730436,1.084702305
1776355119.656224,,,,,,,,,,,656190048.000000000,1776355119.000000000,-0.612614505,-36.174844496,0.000000000,,,,,
1776355119.659642,,,,,,659591171.000000000,1776355119.000000000,-0.458593284,-36.492906500,0.000000000,,,,,,,,,,
1776355119.660530,,,,,,,,,,,,,,,,790000000.000000000,99.000000000,-0.865852257,-36.125447273,1.084712841
1776355119.661243,,,,,,,,,,,661190944.000000000,1776355119.000000000,-0.632500758,-36.097930371,0.000000000,,,,,
1776355119.664648,,,,,,664594371.000000000,1776355119.000000000,-0.478846027,-36.454527775,0.000000000,,,,,,,,,,
1776355119.665591,,,,,,,,,,,,,,,,795000000.000000000,99.000000000,-0.900896344,-36.027600116,1.084732088
1776355119.666243,,,,,,,,,,,666196650.000000000,1776355119.000000000,-0.647038068,-36.019332214,0.000000000,,,,,
1776355119.669645,,,,,,669592281.000000000,1776355119.000000000,-0.494801891,-36.414575071,0.000000000,,,,,,,,,,
1776355119.670645,,,,,,,,,,,,,,,,800000000.000000000,99.000000000,-0.935522709,-35.921195266,1.084760084
1776355119.671244,,,,,,,,,,,671200491.000000000,1776355119.000000000,-0.655627159,-35.939952300,0.000000000,,,,,
1776355119.674670,,,,,,674602395.000000000,1776355119.000000000,-0.506876959,-36.373577867,0.000000000,,,,,,,,,,
1776355119.675618,,,,,,,,,,,,,,,,805000000.000000000,99.000000000,-0.969713422,-35.806239147,1.084796873
1776355119.676235,,,,,,,,,,,676188019.000000000,1776355119.000000000,-0.659668200,-35.860703355,0.000000000,,,,,
1776355119.679087,800000000.000000000,99.000000000,-0.821939545,-36.016581518,1.000000000,,,,,,,,,,,,,,,
1776355119.679668,,,,,,679605936.000000000,1776355119.000000000,-0.581085996,-36.243630733,0.000000000,,,,,,,,,,
1776355119.680813,,,,,,,,,,,,,,,,810000000.000000000,99.000000000,-1.003440558,-35.682739743,1.084842496
1776355119.681257,,,,,,,,,,,681198565.000000000,1776355119.000000000,-0.701637306,-35.724817751,0.000000000,,,,,
1776355119.684675,,,,,,684603736.000000000,1776355119.000000000,-0.645611540,-36.122513665,0.000000000,,,,,,,,,,
1776355119.685762,,,,,,,,,,,,,,,,815000000.000000000,99.000000000,-1.036676536,-35.550707636,1.084896988
1776355119.686272,,,,,,,,,,,686216616.000000000,1776355119.000000000,-0.756608378,-35.567914719,0.000000000,,,,,
1776355119.689668,,,,,,689600082.000000000,1776355119.000000000,-0.701346623,-36.009834046,0.000000000,,,,,,,,,,
1776355119.690807,,,,,,,,,,,,,,,,820000000.000000000,99.000000000,-1.069401059,-35.410156468,1.084960359
1776355119.691256,,,,,,,,,,,691207230.000000000,1776355119.000000000,-0.811771333,-35.407574457,0.000000000,,,,,
1776355119.694652,,,,,,694599635.000000000,1776355119.000000000,-0.749103749,-35.905217768,0.000000000,,,,,,,,,,
1776355119.695644,,,,,,,,,,,,,,,,825000000.000000000,99.000000000,-1.101604352,-35.261102454,1.085032604
1776355119.696245,,,,,,,,,,,696203055.000000000,1776355119.000000000,-0.862395687,-35.252040643,0.000000000,,,,,
1776355119.699660,,,,,,699604689.000000000,1776355119.000000000,-0.789683638,-35.808287184,0.000000000,,,,,,,,,,
1776355119.700628,,,,,,,,,,,,,,,,830000000.000000000,99.000000000,-1.133283250,-35.103564290,1.085113698
1776355119.701244,,,,,,,,,,,701198460.000000000,1776355119.000000000,-0.905455195,-35.105159907,0.000000000,,,,,
1776355119.704673,,,,,,704607659.000000000,1776355119.000000000,-0.823819773,-35.718674906,0.000000000,,,,,,,,,,
1776355119.705698,,,,,,,,,,,,,,,,835000000.000000000,99.000000000,-1.164436716,-34.937562999,1.085203610
1776355119.706253,,,,,,,,,,,706203925.000000000,1776355119.000000000,-0.941221573,-34.968559516,0.000000000,,,,,
1776355119.709647,,,,,,709598734.000000000,1776355119.000000000,-0.852121175,-35.636022221,0.000000000,,,,,,,,,,
1776355119.710606,,,,,,,,,,,,,,,,840000000.000000000,99.000000000,-1.195054435,-34.763120843,1.085302298
1776355119.711252,,,,,,,,,,,711204901.000000000,1776355119.000000000,-0.969108156,-34.842672176,0.000000000,,,,,
1776355119.714672,,,,,,714607386.000000000,1776355119.000000000,-0.875158505,-35.559978353,0.000000000,,,,,,,,,,
1776355119.715677,,,,,,,,,,,,,,,,845000000.000000000,99.000000000,-1.225116921,-34.580260575,1.085409720
1776355119.716245,,,,,,,,,,,716208592.000000000,1776355119.000000000,-0.990325732,-34.727494773,0.000000000,,,,,
1776355119.719222,840000000.000000000,99.000000000,-1.012333717,-34.806463426,1.000000000,,,,,,,,,,,,,,,
1776355119.719668,,,,,,719610596.000000000,1776355119.000000000,-0.922068005,-35.308691399,0.000000000,,,,,,,,,,
1776355119.720765,,,,,,,,,,,,,,,,850000000.000000000,99.000000000,-1.254599188,-34.389007999,1.085525823
1776355119.721259,,,,,,,,,,,721207794.000000000,1776355119.000000000,-1.023254642,-34.504731449,0.000000000,,,,,
1776355119.724658,,,,,,724605099.000000000,1776355119.000000000,-0.961914432,-35.081804330,0.000000000,,,,,,,,,,
1776355119.725615,,,,,,,,,,,,,,,,855000000.000000000,99.000000000,-1.283478535,-34.189393373,1.085650523
1776355119.726247,,,,,,,,,,,726206515.000000000,1776355119.000000000,-1.058031935,-34.245932276,0.000000000,,,,,
1776355119.729661,,,,,,729606866.000000000,1776355119.000000000,-0.995364362,-34.877450787,0.000000000,,,,,,,,,,
1776355119.730673,,,,,,,,,,,,,,,,860000000.000000000,99.000000000,-1.311739973,-33.981452372,1.085783690
1776355119.731255,,,,,,,,,,,731209535.000000000,1776355119.000000000,-1.089140402,-33.985506072,0.000000000,,,,,
1776355119.734684,,,,,,734615117.000000000,1776355119.000000000,-1.023042077,-34.693892553,0.000000000,,,,,,,,,,
1776355119.735789,,,,,,,,,,,,,,,,865000000.000000000,99.000000000,-1.339380915,-33.765221533,1.085925182
1776355119.736311,,,,,,,,,,,736220762.000000000,1776355119.000000000,-1.115261935,-33.739287330,0.000000000,,,,,
1776355119.739719,,,,,,739631364.000000000,1776355119.000000000,-1.045568837,-34.529508567,0.000000000,,,,,,,,,,
1776355119.740865,,,,,,,,,,,,,,,,870000000.000000000,99.000000000,-1.366404652,-33.540740626,1.086074841
1776355119.741251,,,,,,,,,,,741205244.000000000,1776355119.000000000,-1.135144986,-33.513914734,0.000000000,,,,,
1776355119.744666,,,,,,744612499.000000000,1776355119.000000000,-1.063511825,-34.382790504,0.000000000,,,,,,,,,,
1776355119.745604,,,,,,,,,,,,,,,,875000000.000000000,99.000000000,-1.392816496,-33.308045527,1.086232548
1776355119.746252,,,,,,,,,,,746211982.000000000,1776355119.000000000,-1.149561202,-33.311693939,0.000000000,,,,,
1776355119.749663,,,,,,749609517.000000000,1776355119.000000000,-1.077339070,-34.252328258,0.000000000,,,,,,,,,,
1776355119.750585,,,,,,,,,,,,,,,,880000000.000000000,99.000000000,-1.418611633,-33.067174708,1.086398169
1776355119.751262,,,,,,,,,,,751213058.000000000,1776355119.000000000,-1.158155104,-33.132648247,0.000000000,,,,,
1776355119.754686,,,,,,754615403.000000000,1776355119.000000000,-1.087474622,-34.136816431,0.000000000,,,,,,,,,,
1776355119.755696,,,,,,,,,,,,,,,,885000000.000000000,99.000000000,-1.443774300,-32.818170921,1.086571544
1776355119.756274,,,,,,,,,,,756220126.000000000,1776355119.000000000,-1.162191187,-32.975845559,0.000000000,,,,,
1776355119.757930,880000000.000000000,99.000000000,-1.193967620,-33.165394100,1.000000000,,,,,,,,,,,,,,,
1776355119.759656,,,,,,759601808.000000000,1776355119.000000000,-1.121607217,-33.788883488,0.000000000,,,,,,,,,,
1776355119.760697,,,,,,,,,,,,,,,,890000000.000000000,99.000000000,-1.468284365,-32.561087111,1.086752441
1776355119.761274,,,,,,,,,,,761215641.000000000,1776355119.000000000,-1.179213317,-32.679936021,0.000000000,,,,,
1776355119.764673,,,,,,764614919.000000000,1776355119.000000000,-1.150125780,-33.478583051,0.000000000,,,,,,,,,,
1776355119.765595,,,,,,,,,,,,,,,,895000000.000000000,99.000000000,-1.492129416,-32.295977204,1.086940618
1776355119.766258,,,,,,,,,,,766214632.000000000,1776355119.000000000,-1.199623258,-32.341007860,0.000000000,,,,,
1776355119.769674,,,,,,769615795.000000000,1776355119.000000000,-1.173580163,-33.202763183,0.000000000,,,,,,,,,,
1776355119.770577,,,,,,,,,,,,,,,,900000000.000000000,99.000000000,-1.515307008,-32.022901732,1.087135782
1776355119.771251,,,,,,,,,,,771215929.000000000,1776355119.000000000,-1.218069509,-32.004885096,0.000000000,,,,,
1776355119.774684,,,,,,774621410.000000000,1776355119.000000000,-1.192481325,-32.958508948,0.000000000,,,,,,,,,,
1776355119.775736,,,,,,,,,,,,,,,,905000000.000000000,99.000000000,-1.537820452,-31.741919727,1.087337657
1776355119.776279,,,,,,,,,,,776224490.000000000,1776355119.000000000,-1.233155827,-31.692182892,0.000000000,,,,,
1776355119.779699,,,,,,779630312.000000000,1776355119.000000000,-1.207341820,-32.743115001,0.000000000,,,,,,,,,,
1776355119.780806,,,,,,,,,,,,,,,,910000000.000000000,99.000000000,-1.559674825,-31.453088842,1.087545987
1776355119.781252,,,,,,,,,,,781214042.000000000,1776355119.000000000,-1.243591952,-31.411236040,0.000000000,,,,,
1776355119.784668,,,,,,784616528.000000000,1776355119.000000000,-1.218628540,-32.554079535,0.000000000,,,,,,,,,,
1776355119.785794,,,,,,,,,,,,,,,,915000000.000000000,99.000000000,-1.580867029,-31.156466796,1.087760531
1776355119.786260,,,,,,,,,,,786219558.000000000,1776355119.000000000,-1.249986324,-31.164436560,0.000000000,,,,,
1776355119.789673,,,,,,789620429.000000000,1776355119.000000000,-1.226720607,-32.389086497,0.000000000,,,,,,,,,,
1776355119.790575,,,,,,,,,,,,,,,,920000000.000000000,99.000000000,-1.601392060,-30.852118927,1.087981004
1776355119.791276,,,,,,,,,,,791221225.000000000,1776355119.000000000,-1.252087486,-30.951205893,0.000000000,,,,,
1776355119.794674,,,,,,794619171.000000000,1776355119.000000000,-1.231974539,-32.245995094,0.000000000,,,,,,,,,,
1776355119.795628,,,,,,,,,,,,,,,,925000000.000000000,99.000000000,-1.621243279,-30.540113706,1.088207099
1776355119.796278,,,,,,,,,,,796226529.000000000,1776355119.000000000,-1.250778335,-30.769781619,0.000000000,,,,,
1776355119.797887,920000000.000000000,99.000000000,-1.370414560,-30.932399783,1.000000000,,,,,,,,,,,,,,,
1776355119.799669,,,,,,799622181.000000000,1776355119.000000000,-1.261219323,-31.787884795,0.000000000,,,,,,,,,,
1776355119.800659,,,,,,,,,,,,,,,,930000000.000000000,99.000000000,-1.640413374,-30.220526988,1.088438456
1776355119.801258,,,,,,,,,,,801215240.000000000,1776355119.000000000,-1.263157349,-30.400102028,0.000000000,,,,,
1776355119.804674,,,,,,804620250.000000000,1776355119.000000000,-1.285625870,-31.381927990,0.000000000,,,,,,,,,,
1776355119.805545,,,,,,,,,,,,,,,,935000000.000000000,99.000000000,-1.658896814,-29.893437579,1.088674710
1776355119.806252,,,,,,,,,,,806219974.000000000,1776355119.000000000,-1.279667501,-29.972567086,0.000000000,,,,,
1776355119.809680,,,,,,809625024.000000000,1776355119.000000000,-1.305680281,-31.023574028,0.000000000,,,,,,,,,,
1776355119.810782,,,,,,,,,,,,,,,,940000000.000000000,99.000000000,-1.676693255,-29.558932642,1.088915444
1776355119.811266,,,,,,,,,,,811226671.000000000,1776355119.000000000,-1.294976211,-29.549001234,0.000000000,,,,,
1776355119.814729,,,,,,814634147.000000000,1776355119.000000000,-1.321817513,-30.708616102,0.000000000,,,,,,,,,,
1776355119.815694,,,,,,,,,,,,,,,,945000000.000000000,99.000000000,-1.693805749,-29.217094467,1.089160281
1776355119.816284,,,,,,,,,,,816230312.000000000,1776355119.000000000,-1.307742652,-29.157317659,0.000000000,,,,,
1776355119.819727,,,,,,819644813.000000000,1776355119.000000000,-1.334485331,-30.433176270,0.000000000,,,,,,,,,,
1776355119.820930,,,,,,,,,,,,,,,,950000000.000000000,99.000000000,-1.710239782,-28.868005542,1.089408860
1776355119.821260,,,,,,,,,,,821221318.000000000,1776355119.000000000,-1.316754624,-28.808709732,0.000000000,,,,,
1776355119.824677,,,,,,824622280.000000000,1776355119.000000000,-1.344091212,-30.193677607,0.000000000,,,,,,,,,,
1776355119.825581,,,,,,,,,,,,,,,,955000000.000000000,99.000000000,-1.725997404,-28.511741406,1.089660894
1776355119.826267,,,,,,,,,,,826226833.000000000,1776355119.000000000,-1.322385724,-28.506013747,0.000000000,,,,,
1776355119.829674,,,,,,829622113.000000000,1776355119.000000000,-1.350971216,-29.986831606,0.000000000,,,,,,,,,,
1776355119.830788,,,,,,,,,,,,,,,,960000000.000000000,99.000000000,-1.741079498,-28.148392429,1.089916010
1776355119.831285,,,,,,,,,,,831231636.000000000,1776355119.000000000,-1.324444716,-28.248240533,0.000000000,,,,,
1776355119.834687,,,,,,834629502.000000000,1776355119.000000000,-1.355439761,-29.809591089,0.000000000,,,,,,,,,,
1776355119.835605,,,,,,,,,,,,,,,,965000000.000000000,99.000000000,-1.755484805,-27.778054530,1.090173793
1776355119.836295,,,,,,,,,,,836237572.000000000,1776355119.000000000,-1.323616153,-28.032843113,0.000000000,,,,,
1776355119.838825,960000000.000000000,99.000000000,-1.549520222,-28.230509626,1.000000000,,,,,,,,,,,,,,,
1776355119.839668,,,,,,839624616.000000000,1776355119.000000000,-1.384676106,-29.253875395,0.000000000,,,,,,,,,,
1776355119.840783,,,,,,,,,,,,,,,,970000000.000000000,99.000000000,-1.769218365,-27.400828959,1.090433797
1776355119.841276,,,,,,,,,,,841227235.000000000,1776355119.000000000,-1.337515117,-27.593094358,0.000000000,,,,,
1776355119.844719,,,,,,844635382.000000000,1776355119.000000000,-1.409367514,-28.763585286,0.000000000,,,,,,,,,,
1776355119.845654,,,,,,,,,,,,,,,,975000000.000000000,99.000000000,-1.782283832,-27.016817039,1.090695602
1776355119.846270,,,,,,,,,,,846229223.000000000,1776355119.000000000,-1.356005992,-27.086240988,0.000000000,,,,,
1776355119.849686,,,,,,849630686.000000000,1776355119.000000000,-1.429988459,-28.332880414,0.000000000,,,,,,,,,,
1776355119.850635,,,,,,,,,,,,,,,,980000000.000000000,99.000000000,-1.794678576,-26.626126617,1.090958777
1776355119.851276,,,,,,,,,,,851233064.000000000,1776355119.000000000,-1.373876230,-26.586676648,0.000000000,,,,,
1776355119.854730,,,,,,854643897.000000000,1776355119.000000000,-1.446953797,-27.956372834,0.000000000,,,,,,,,,,
1776355119.855974,,,,,,,,,,,,,,,,985000000.000000000,99.000000000,-1.806399116,-26.228860925,1.091222933
1776355119.856294,,,,,,,,,,,856242558.000000000,1776355119.000000000,-1.389465617,-26.127671373,0.000000000,,,,,
1776355119.859749,,,,,,859667219.000000000,1776355119.000000000,-1.460674730,-27.629096603,0.000000000,,,,,,,,,,
1776355119.861036,,,,,,,,,,,,,,,,990000000.000000000,99.000000000,-1.817441453,-25.825122372,1.091487700
1776355119.861272,,,,,,,,,,,861228382.000000000,1776355119.000000000,-1.401811228,-25.722341965,0.000000000,,,,,
1776355119.864681,,,,,,864629645.000000000,1776355119.000000000,-1.471525622,-27.346478030,0.000000000,,,,,,,,,,
1776355119.865734,,,,,,,,,,,,,,,,995000000.000000000,99.000000000,-1.827804814,-25.415017678,1.091752706
1776355119.866294,,,,,,,,,,,866241163.000000000,1776355119.000000000,-1.410917999,-25.373817168,0.000000000,,,,,
1776355119.869693,,,,,,869639329.000000000,1776355119.000000000,-1.479835635,-27.104314155,0.000000000,,,,,,,,,,
1776355119.870686,,,,,,,,,,,,,,,,0.000000000,100.000000000,-1.837501638,-24.998664295,1.092017525
1776355119.871307,,,,,,,,,,,871233430.000000000,1776355119.000000000,-1.416730904,-25.080620073,0.000000000,,,,,
1776355119.874716,,,,,,874642469.000000000,1776355119.000000000,-1.485899912,-26.898725748,0.000000000,,,,,,,,,,
1776355119.875611,,,,,,,,,,,,,,,,5000000.000000000,100.000000000,-1.846547391,-24.576179257,1.092281753
1776355119.876307,,,,,,,,,,,876246922.000000000,1776355119.000000000,-1.419754239,-24.839341334,0.000000000,,,,,
1776355119.878204,0.000000000,100.000000000,-1.736607607,-24.976717526,1.000000000,,,,,,,,,,,,,,,
1776355119.879691,,,,,,879637012.000000000,1776355119.000000000,-1.518065844,-26.238084406,0.000000000,,,,,,,,,,
1776355119.880733,,,,,,,,,,,,,,,,10000000.000000000,100.000000000,-1.854951398,-24.147681588,1.092544986
1776355119.881275,,,,,,,,,,,881231895.000000000,1776355119.000000000,-1.438430850,-24.328399271,0.000000000,,,,,
1776355119.884682,,,,,,884634550.000000000,1776355119.000000000,-1.545675576,-25.656794123,0.000000000,,,,,,,,,,
1776355119.885591,,,,,,,,,,,,,,,,15000000.000000000,100.000000000,-1.862717384,-23.713288748,1.092806848
1776355119.886293,,,,,,,,,,,886238703.000000000,1776355119.000000000,-1.462061617,-23.737068024,0.000000000,,,,,
1776355119.889682,,,,,,889637631.000000000,1776355119.000000000,-1.569195147,-25.147658144,0.000000000,,,,,,,,,,
1776355119.890719,,,,,,,,,,,,,,,,20000000.000000000,100.000000000,-1.869849745,-23.273126369,1.093066953
1776355119.891281,,,,,,,,,,,891241151.000000000,1776355119.000000000,-1.485620229,-23.154681156,0.000000000,,,,,
1776355119.894738,,,,,,894654740.000000000,1776355119.000000000,-1.589063203,-24.704054070,0.000000000,,,,,,,,,,
1776355119.895824,,,,,,,,,,,,,,,,25000000.000000000,100.000000000,-1.876350848,-22.827314937,1.093324961
1776355119.896287,,,,,,,,,,,896248711.000000000,1776355119.000000000,-1.506795620,-22.621134610,0.000000000,,,,,
1776355119.899702,,,,,,899643510.000000000,1776355119.000000000,-1.605674942,-24.319885627,0.000000000,,,,,,,,,,
1776355119.901177,,,,,,,,,,,,,,,,30000000.000000000,100.000000000,-1.882218549,-22.375972354,1.093580567
1776355119.901312,,,,,,,,,,,901247773.000000000,1776355119.000000000,-1.524712556,-22.152023027,0.000000000,,,,,
1776355119.904715,,,,,,904644987.000000000,1776355119.000000000,-1.619390727,-23.989543132,0.000000000,,,,,,,,,,
1776355119.905758,,,,,,,,,,,,,,,,35000000.000000000,100.000000000,-1.887460234,-21.919220747,1.093833451
1776355119.906310,,,,,,,,,,,906247296.000000000,1776355119.000000000,-1.539246250,-21.751011173,0.000000000,,,,,
1776355119.909905,,,,,,909846176.000000000,1776355119.000000000,-1.630535674,-23.707873156,0.000000000,,,,,,,,,,
1776355119.910722,,,,,,,,,,,,,,,,40000000.000000000,100.000000000,-1.892094093,-21.457199527,1.094083227
1776355119.911314,,,,,,,,,,,911245716.000000000,1776355119.000000000,-1.550607806,-21.416366198,0.000000000,,,,,
1776355119.914715,,,,,,914645476.000000000,1776355119.000000000,-1.639415247,-23.470142701,0.000000000,,,,,,,,,,
1776355119.915832,,,,,,,,,,,,,,,,45000000.000000000,100.000000000,-1.896135867,-20.990046194,1.094329534
1776355119.916307,,,,,,,,,,,916254748.000000000,1776355119.000000000,-1.558977024,-21.143678495,0.000000000,,,,,
1776355119.917900,40000000.000000000,100.000000000,-1.721205470,-21.431611027,1.000000000,,,,,,,,,,,,,,,
1776355119.919690,,,,,,919644908.000000000,1776355119.000000000,-1.643989995,-22.740230787,0.000000000,,,,,,,,,,
1776355119.920560,,,,,,,,,,,,,,,,50000000.000000000,100.000000000,-1.899584979,-20.517892798,1.094572065
1776355119.921289,,,,,,,,,,,921244822.000000000,1776355119.000000000,-1.563439536,-20.582032023,0.000000000,,,,,
1776355119.924698,,,,,,924645764.000000000,1776355119.000000000,-1.647050887,-22.099953328,0.000000000,,,,,,,,,,
1776355119.925653,,,,,,,,,,,,,,,,55000000.000000000,100.000000000,-1.902441866,-20.040871524,1.094810535
1776355119.926311,,,,,,,,,,,926246188.000000000,1776355119.000000000,-1.564933755,-19.937074727,0.000000000,,,,,
1776355119.929700,,,,,,929641138.000000000,1776355119.000000000,-1.648822234,-21.541073968,0.000000000,,,,,,,,,,
1776355119.930650,,,,,,,,,,,,,,,,60000000.000000000,100.000000000,-1.904707573,-19.559119688,1.095044662
1776355119.931293,,,,,,,,,,,931246392.000000000,1776355119.000000000,-1.564390689,-19.305661573,0.000000000,,,,,
1776355119.934730,,,,,,934658478.000000000,1776355119.000000000,-1.649495616,-21.056027973,0.000000000,,,,,,,,,,
1776355119.935667,,,,,,,,,,,,,,,,65000000.000000000,100.000000000,-1.906383734,-19.072768329,1.095274212
1776355119.936304,,,,,,,,,,,936249783.000000000,1776355119.000000000,-1.562159985,-18.730631292,0.000000000,,,,,
1776355119.939712,,,,,,939653902.000000000,1776355119.000000000,-1.649231710,-20.637848391,0.000000000,,,,,,,,,,
1776355119.940746,,,,,,,,,,,,,,,,70000000.000000000,100.000000000,-1.907477007,-18.581948897,1.095498961
1776355119.941309,,,,,,,,,,,941246019.000000000,1776355119.000000000,-1.558840125,-18.228307768,0.000000000,,,,,
1776355119.944715,,,,,,944653014.000000000,1776355119.000000000,-1.648175109,-20.280129423,0.000000000,,,,,,,,,,
1776355119.945668,,,,,,,,,,,,,,,,75000000.000000000,100.000000000,-1.908004685,-18.086803484,1.095718643
1776355119.946302,,,,,,,,,,,946253298.000000000,1776355119.000000000,-1.554455957,-17.802494079,0.000000000,,,,,
1776355119.949703,,,,,,949647025.000000000,1776355119.000000000,-1.646473622,-19.976973194,0.000000000,,,,,,,,,,
1776355119.950658,,,,,,,,,,,,,,,,80000000.000000000,100.000000000,-1.907976486,-17.587480500,1.095932993
1776355119.951287,,,,,,,,,,,951250336.000000000,1776355119.000000000,-1.549498547,-17.450799251,0.000000000,,,,,
1776355119.954725,,,,,,954657090.000000000,1776355119.000000000,-1.644260529,-19.722978482,0.000000000,,,,,,,,,,
1776355119.955801,,,,,,,,,,,,,,,,85000000.000000000,100.000000000,-1.907392829,-17.084122235,1.096141803
1776355119.956327,,,,,,,,,,,956261833.000000000,1776355119.000000000,-1.543883533,-17.168161575,0.000000000,,,,,
1776355119.957443,80000000.000000000,100.000000000,-1.717678985,-17.704664933,1.000000000,,,,,,,,,,,,,,,
1776355119.959702,,,,,,959649859.000000000,1776355119.000000000,-1.641105488,-18.954146754,0.000000000,,,,,,,,,,
1776355119.960592,,,,,,,,,,,,,,,,90000000.000000000,100.000000000,-1.906253072,-16.576867873,1.096344894
1776355119.961285,,,,,,,,,,,961247317.000000000,1776355119.000000000,-1.537816770,-16.585215754,0.000000000,,,,,
1776355119.964711,,,,,,964651376.000000000,1776355119.000000000,-1.637679119,-18.281794203,0.000000000,,,,,,,,,,
1776355119.965699,,,,,,,,,,,,,,,,95000000.000000000,100.000000000,-1.904552909,-16.065860159,1.096542093
1776355119.966301,,,,,,,,,,,966251490.000000000,1776355119.000000000,-1.531233858,-15.917583936,0.000000000,,,,,
1776355119.969718,,,,,,969657452.000000000,1776355119.000000000,-1.634084403,-17.696956326,0.000000000,,,,,,,,,,
1776355119.970727,,,,,,,,,,,,,,,,100000000.000000000,100.000000000,-1.902295660,-15.551241728,1.096733243
1776355119.971299,,,,,,,,,,,971253056.000000000,1776355119.000000000,-1.524650505,-15.266610580,0.000000000,,,,,
1776355119.974727,,,,,,974663638.000000000,1776355119.000000000,-1.630402003,-17.191397171,0.000000000,,,,,,,,,,
1776355119.975619,,,,,,,,,,,,,,,,105000000.000000000,100.000000000,-1.899490019,-15.033147763,1.096918235
1776355119.976312,,,,,,,,,,,976262911.000000000,1776355119.000000000,-1.517947600,-14.676944051,0.000000000,,,,,
1776355119.979769,,,,,,979674755.000000000,1776355119.000000000,-1.626682031,-16.757539073,0.000000000,,,,,,,,,,
1776355119.980998,,,,,,,,,,,,,,,,110000000.000000000,100.000000000,-1.896149827,-14.511711696,1.097096971
1776355119.981421,,,,,,,,,,,981293498.000000000,1776355119.000000000,-1.511601759,-14.165424180,0.000000000,,,,,
1776355119.984710,,,,,,984657604.000000000,1776355119.000000000,-1.622968191,-16.388419530,0.000000000,,,,,,,,,,
1776355119.985585,,,,,,,,,,,,,,,,115000000.000000000,100.000000000,-1.892290387,-13.987076162,1.097269333
1776355119.986310,,,,,,,,,,,986258689.000000000,1776355119.000000000,-1.505318451,-13.735650005,0.000000000,,,,,
1776355119.989703,,,,,,989655824.000000000,1776355119.000000000,-1.619325562,-16.077638012,0.000000000,,,,,,,,,,
1776355119.990584,,,,,,,,,,,,,,,,120000000.000000000,100.000000000,-1.887922695,-13.459386800,1.097435207
1776355119.991346,,,,,,,,,,,991262611.000000000,1776355119.000000000,-1.499544068,-13.384748984,0.000000000,,,,,
1776355119.994741,,,,,,994665768.000000000,1776355119.000000000,-1.615810299,-15.819325988,0.000000000,,,,,,,,,,
1776355119.995946,,,,,,,,,,,,,,,,125000000.000000000,100.000000000,-1.883050200,-12.928779721,1.097594540
1776355119.996321,,,,,,,,,,,996265301.000000000,1776355119.000000000,-1.493950548,-13.107216696,0.000000000,,,,,
1776355119.997886,120000000.000000000,100.000000000,-1.725030518,-13.528088496,1.000000000,,,,,,,,,,,,,,,
1776355119.999719,,,,,,999660050.000000000,1776355119.000000000,-1.613545186,-14.981621959,0.000000000,,,,,,,,,,
1776355120.000632,,,,,,,,,,,,,,,,130000000.000000000,100.000000000,-1.877669369,-12.395380396,1.097747324
1776355120.001294,,,,,,,,,,,1254512.000000000,1776355120.000000000,-1.489784570,-12.489523594,0.000000000,,,,,
1776355120.004722,,,,,,4664470.000000000,1776355120.000000000,-1.611331964,-14.249761893,0.000000000,,,,,,,,,,
1776355120.005733,,,,,,,,,,,,,,,,135000000.000000000,100.000000000,-1.871781580,-11.859334620,1.097893488
1776355120.006312,,,,,,,,,,,6265094.000000000,1776355120.000000000,-1.486134090,-11.773274941,0.000000000,,,,,
1776355120.009711,,,,,,9657145.000000000,1776355120.000000000,-1.609229912,-13.613874904,0.000000000,,,,,,,,,,
1776355120.010642,,,,,,,,,,,,,,,,140000000.000000000,100.000000000,-1.865394877,-11.320784755,1.098032984
