__time,/uav/cv/swing_angle/cartesian/header/stamp/nanosec,/uav/cv/swing_angle/cartesian/header/stamp/sec,/uav/cv/swing_angle/cartesian/vector/x,/uav/cv/swing_angle/cartesian/vector/y,/uav/cv/swing_angle/cartesian/vector/z,/uav/cv/swing_angle/polar/header/stamp/nanosec,/uav/cv/swing_angle/polar/header/stamp/sec,/uav/cv/swing_angle/polar/vector/x,/uav/cv/swing_angle/polar/vector/y,/uav/cv/swing_angle/polar/vector/z,/uav/truth/swing_angle/cartesian/header/stamp/nanosec,/uav/truth/swing_angle/cartesian/header/stamp/sec,/uav/truth/swing_angle/cartesian/vector/x,/uav/truth/swing_angle/cartesian/vector/y,/uav/truth/swing_angle/cartesian/vector/z,/uav/truth/swing_angle/polar/header/stamp/nanosec,/uav/truth/swing_angle/polar/header/stamp/sec,/uav/truth/swing_angle/polar/vector/x,/uav/truth/swing_angle/polar/vector/y,/uav/truth/swing_angle/polar/vector/z
1775893692.888921,,,,,,,,,,,890000000.000000000,283.000000000,-43.310183094,41.642141778,0.997488334,,,,,
1775893692.889028,,,,,,,,,,,,,,,,890000000.000000000,283.000000000,52.343123938,136.673822580,0.997488334
1775893692.892424,,,,,,,,,,,895000000.000000000,283.000000000,-44.087091211,42.406161938,0.997421612,,,,,
1775893692.892479,,,,,,,,,,,,,,,,895000000.000000000,283.000000000,53.088462399,136.683356452,0.997421612
1775893692.897473,,,,,,,,,,,900000000.000000000,283.000000000,-44.869254885,43.177424700,0.997352829,,,,,
1775893692.897502,,,,,,,,,,,,,,,,900000000.000000000,283.000000000,53.832952634,136.692075756,0.997352829
1775893692.902528,,,,,,,,,,,905000000.000000000,283.000000000,-45.656484087,43.955783116,0.997281920,,,,,
1775893692.902561,,,,,,,,,,,,,,,,905000000.000000000,283.000000000,54.576385327,136.699991150,0.997281920
1775893692.906932,,,,,,,,,,,910000000.000000000,283.000000000,-46.448572816,44.741077022,0.997208819,,,,,
1775893692.906954,,,,,,,,,,,,,,,,910000000.000000000,283.000000000,55.318549574,136.707105813,0.997208819
1775893692.912559,,,,,,,,,,,915000000.000000000,283.000000000,-47.245584743,45.533342854,0.997133537,,,,,
1775893692.912580,,,,,,,,,,,,,,,,915000000.000000000,283.000000000,56.059465393,136.713491632,0.997133537
1775893692.917594,,,,,,,,,,,920000000.000000000,283.000000000,-48.047374409,46.332368614,0.997055930,,,,,
1775893692.917636,,,,,,,,,,,,,,,,920000000.000000000,283.000000000,56.798948079,136.719255574,0.997055930
1775893692.922172,,,,,,,,,,,925000000.000000000,283.000000000,-48.853661428,47.137839899,0.996975874,,,,,
1775893692.922211,,,,,,,,,,,,,,,,925000000.000000000,283.000000000,57.536716013,136.724467117,0.996975874
1775893692.927045,,,,,,,,,,,930000000.000000000,283.000000000,-49.664110101,47.949445728,0.996893268,,,,,
1775893692.927071,,,,,,,,,,,,,,,,930000000.000000000,283.000000000,58.272478208,136.729131572,0.996893268
1775893692.931854,920000000.000000000,283.000000000,-40.796316562,41.279289549,1.000000000,,,,,,,,,,,,,,,
1775893692.931953,,,,,,920000000.000000000,283.000000000,50.913202800,134.512388117,1.000000000,,,,,,,,,,
1775893692.933746,,,,,,,,,,,935000000.000000000,283.000000000,-50.478742851,48.767152534,0.996808169,,,,,
1775893692.933795,,,,,,,,,,,,,,,,935000000.000000000,283.000000000,59.006246624,136.733333329,0.996808169
1775893692.938028,,,,,,,,,,,940000000.000000000,283.000000000,-51.297374802,49.590677275,0.996720446,,,,,
1775893692.938057,,,,,,,,,,,,,,,,940000000.000000000,283.000000000,59.737837502,136.737194980,0.996720446
1775893692.942795,,,,,,,,,,,945000000.000000000,283.000000000,-52.119708228,50.419645875,0.996629995,,,,,
1775893692.942843,,,,,,,,,,,,,,,,945000000.000000000,283.000000000,60.466989488,136.740813249,0.996629995
1775893692.947367,,,,,,,,,,,950000000.000000000,283.000000000,-52.945373379,51.253636600,0.996536692,,,,,
1775893692.947397,,,,,,,,,,,,,,,,950000000.000000000,283.000000000,61.193403714,136.744256144,0.996536692
1775893692.952276,,,,,,,,,,,955000000.000000000,283.000000000,-53.774210600,52.092493276,0.996440527,,,,,
1775893692.952314,,,,,,,,,,,,,,,,955000000.000000000,283.000000000,61.917001801,136.747534891,0.996440527
1775893692.956971,,,,,,,,,,,960000000.000000000,283.000000000,-54.605672698,52.935760751,0.996341252,,,,,
1775893692.957001,,,,,,,,,,,,,,,,960000000.000000000,283.000000000,62.637417369,136.750558244,0.996341252
1775893692.962642,,,,,,,,,,,965000000.000000000,283.000000000,-55.439154297,53.782896956,0.996238727,,,,,
1775893692.962690,,,,,,,,,,,,,,,,965000000.000000000,283.000000000,63.354241525,136.753254162,0.996238727
1775893692.968300,,,,,,,,,,,970000000.000000000,283.000000000,-56.274124773,54.633286810,0.996132858,,,,,
1775893692.968366,,,,,,,,,,,,,,,,970000000.000000000,283.000000000,64.067090002,136.755698280,0.996132858
1775893692.972396,,,,,,,,,,,975000000.000000000,283.000000000,-57.110396009,55.486539487,0.996023709,,,,,
1775893692.972459,,,,,,,,,,,,,,,,975000000.000000000,283.000000000,64.775837507,136.758097306,0.996023709
1775893692.977811,,,,,,,,,,,980000000.000000000,283.000000000,-57.947619952,56.342076545,0.995911141,,,,,
1775893692.977846,,,,,,,,,,,,,,,,980000000.000000000,283.000000000,65.480225269,136.760688947,0.995911141
1775893692.983023,,,,,,,,,,,985000000.000000000,283.000000000,-58.785280986,57.199224917,0.995795004,,,,,
1775893692.983097,,,,,,,,,,,,,,,,985000000.000000000,283.000000000,66.179898063,136.763633859,0.995795004
1775893692.988156,,,,,,,,,,,990000000.000000000,283.000000000,-59.622696484,58.057292854,0.995675115,,,,,
1775893692.988222,,,,,,,,,,,,,,,,990000000.000000000,283.000000000,66.874436226,136.766927007,0.995675115
1775893692.992336,,,,,,,,,,,995000000.000000000,283.000000000,-60.459461024,58.915915654,0.995551502,,,,,
1775893692.992371,,,,,,,,,,,,,,,,995000000.000000000,283.000000000,67.563680501,136.770511431,0.995551502
1775893692.997723,,,,,,,,,,,0.000000000,284.000000000,-61.294866363,59.774403239,0.995423916,,,,,
1775893692.997799,,,,,,,,,,,,,,,,0.000000000,284.000000000,68.247227969,136.774338090,0.995423916
1775893693.002092,,,,,,,,,,,5000000.000000000,284.000000000,-62.128169352,60.631951588,0.995292198,,,,,
1775893693.002122,,,,,,,,,,,,,,,,5000000.000000000,284.000000000,68.924633531,136.778439730,0.995292198
1775893693.006833,,,,,,,,,,,10000000.000000000,284.000000000,-62.958625682,61.487677945,0.995156198,,,,,
1775893693.006848,,,,,,,,,,,,,,,,10000000.000000000,284.000000000,69.595437931,136.782937649,0.995156198
1775893693.012729,,,,,,,,,,,15000000.000000000,284.000000000,-63.785854386,62.341024684,0.995015998,,,,,
1775893693.012767,,,,,,,,,,,,,,,,15000000.000000000,284.000000000,70.259469055,136.788019859,0.995015998
1775893693.018333,,,,,,,,,,,20000000.000000000,284.000000000,-64.609009119,63.190992149,0.994871268,,,,,
1775893693.018409,,,,,,,,,,,,,,,,20000000.000000000,284.000000000,70.916204452,136.793836544,0.994871268
1775893693.022037,,,,,,,,,,,25000000.000000000,284.000000000,-65.427173973,64.036587704,0.994721840,,,,,
1775893693.022063,,,,,,,,,,,,,,,,25000000.000000000,284.000000000,71.565108690,136.800445496,0.994721840
1775893693.027469,,,,,,,,,,,30000000.000000000,284.000000000,-66.239470071,64.876892319,0.994567600,,,,,
1775893693.027557,,,,,,,,,,,,,,,,30000000.000000000,284.000000000,72.205700556,136.807859301,0.994567600
1775893693.033116,,,,,,,,,,,35000000.000000000,284.000000000,-67.045346178,65.711318324,0.994408629,,,,,
1775893693.033175,,,,,,,,,,,,,,,,35000000.000000000,284.000000000,72.837762054,136.816101178,0.994408629
1775893693.037478,,,,,,,,,,,40000000.000000000,284.000000000,-67.843737776,66.538708826,0.994244471,,,,,
1775893693.037546,,,,,,,,,,,,,,,,40000000.000000000,284.000000000,73.460665282,136.825239107,0.994244471
1775893693.042832,,,,,,,,,,,45000000.000000000,284.000000000,-68.633426970,67.357720799,0.994074762,,,,,
1775893693.042890,,,,,,,,,,,,,,,,45000000.000000000,284.000000000,74.073664561,136.835377669,0.994074762
1775893693.047926,,,,,,,,,,,50000000.000000000,284.000000000,-69.413179412,68.166999418,0.993899244,,,,,
1775893693.047956,,,,,,,,,,,,,,,,50000000.000000000,284.000000000,74.676014386,136.846617500,0.993899244
1775893693.054034,,,,,,,,,,,55000000.000000000,284.000000000,-70.182302759,68.965801417,0.993718158,,,,,
1775893693.054090,,,,,,,,,,,,,,,,55000000.000000000,284.000000000,75.267410698,136.859000060,0.993718158
1775893693.057190,,,,,,,,,,,60000000.000000000,284.000000000,-70.939904158,69.753190903,0.993531396,,,,,
1775893693.057215,,,,,,,,,,,,,,,,60000000.000000000,284.000000000,75.847400465,136.872540401,0.993531396
1775893693.062695,,,,,,,,,,,65000000.000000000,284.000000000,-71.685106734,70.528236011,0.993338906,,,,,
1775893693.062716,,,,,,,,,,,,,,,,65000000.000000000,284.000000000,76.415538911,136.887269884,0.993338906
1775893693.067876,,,,,,,,,,,70000000.000000000,284.000000000,-72.416900195,71.289830245,0.993140451,,,,,
1775893693.067933,,,,,,,,,,,,,,,,70000000.000000000,284.000000000,76.971267074,136.903273329,0.993140451
1775893693.071927,,,,,,,,,,,75000000.000000000,284.000000000,-73.134382147,72.036973554,0.992935893,,,,,
1775893693.071949,,,,,,,,,,,,,,,,75000000.000000000,284.000000000,77.514105139,136.920651907,0.992935893
1775893693.077404,,,,,,,,,,,80000000.000000000,284.000000000,-73.836078356,72.768081362,0.992724544,,,,,
1775893693.077489,,,,,,,,,,,,,,,,80000000.000000000,284.000000000,78.043143870,136.939477082,0.992724544
1775893693.083557,,,,,,,,,,,85000000.000000000,284.000000000,-74.520521389,73.481615533,0.992506030,,,,,
1775893693.083621,,,,,,,,,,,,,,,,85000000.000000000,284.000000000,78.557494117,136.959743364,0.992506030
1775893693.087482,,,,,,,,,,,90000000.000000000,284.000000000,-75.186523643,74.176338479,0.992280345,,,,,
1775893693.087553,,,,,,,,,,,,,,,,90000000.000000000,284.000000000,79.056478545,136.981420036,0.992280345
1775893693.093382,,,,,,,,,,,95000000.000000000,284.000000000,-75.833552263,74.851675043,0.992048043,,,,,
1775893693.093431,,,,,,,,,,,,,,,,95000000.000000000,284.000000000,79.539896731,137.004521954,0.992048043
1775893693.097805,,,,,,,,,,,100000000.000000000,284.000000000,-76.460770599,75.506684602,0.991809062,,,,,
1775893693.097914,,,,,,,,,,,,,,,,100000000.000000000,284.000000000,80.007295385,137.029144182,0.991809062
1775893693.102518,,,,,,,,,,,105000000.000000000,284.000000000,-77.067061103,76.140122348,0.991563074,,,,,
1775893693.102552,,,,,,,,,,,,,,,,105000000.000000000,284.000000000,80.458000794,137.055393351,0.991563074
1775893693.106852,,,,,,,,,,,110000000.000000000,284.000000000,-77.650915194,76.750332762,0.991309419,,,,,
1775893693.106871,,,,,,,,,,,,,,,,110000000.000000000,284.000000000,80.891042149,137.083358113,0.991309419
1775893693.112308,,,,,,,,,,,115000000.000000000,284.000000000,-78.210995991,77.335885469,0.991047819,,,,,
1775893693.112343,,,,,,,,,,,,,,,,115000000.000000000,284.000000000,81.305585390,137.113015639,0.991047819
1775893693.117839,,,,,,,,,,,120000000.000000000,284.000000000,-78.745851112,77.895234974,0.990777923,,,,,
1775893693.117890,,,,,,,,,,,,,,,,120000000.000000000,284.000000000,81.700705718,137.144287192,0.990777923
1775893693.123670,,,,,,,,,,,125000000.000000000,284.000000000,-79.254461983,78.427277297,0.990499995,,,,,
1775893693.123732,,,,,,,,,,,,,,,,125000000.000000000,284.000000000,82.075786573,137.177104983,0.990499995
1775893693.127463,,,,,,,,,,,130000000.000000000,284.000000000,-79.736065944,78.931115212,0.990214479,,,,,
1775893693.127508,,,,,,,,,,,,,,,,130000000.000000000,284.000000000,82.430370023,137.211539302,0.990214479
1775893693.133058,,,,,,,,,,,135000000.000000000,284.000000000,-80.190011771,79.405948581,0.989921827,,,,,
1775893693.133087,,,,,,,,,,,,,,,,135000000.000000000,284.000000000,82.764062827,137.247707303,0.989921827
1775893693.138737,,,,,,,,,,,140000000.000000000,284.000000000,-80.615165541,79.850465771,0.989621831,,,,,
1775893693.138781,,,,,,,,,,,,,,,,140000000.000000000,284.000000000,83.076104582,137.285690283,0.989621831
1775893693.142017,,,,,,,,,,,145000000.000000000,284.000000000,-81.010135182,80.263102305,0.989314117,,,,,
1775893693.142032,,,,,,,,,,,,,,,,145000000.000000000,284.000000000,83.365542315,137.325460035,0.989314117
1775893693.147113,,,,,,,,,,,150000000.000000000,284.000000000,-81.373427327,80.642186323,0.988998393,,,,,
1775893693.147145,,,,,,,,,,,,,,,,150000000.000000000,284.000000000,83.631340315,137.366920355,0.988998393
1775893693.152532,,,,,,,,,,,155000000.000000000,284.000000000,-81.704013855,80.986529957,0.988675142,,,,,
1775893693.152565,,,,,,,,,,,,,,,,155000000.000000000,284.000000000,83.872794308,137.409962328,0.988675142
1775893693.156929,,,,,,,,,,,160000000.000000000,284.000000000,-82.001141210,81.295199001,0.988345206,,,,,
1775893693.156949,,,,,,,,,,,,,,,,160000000.000000000,284.000000000,84.089381008,137.454555240,0.988345206
1775893693.162688,,,,,,,,,,,165000000.000000000,284.000000000,-82.264253245,81.567445449,0.988009669,,,,,
1775893693.162732,,,,,,,,,,,,,,,,165000000.000000000,284.000000000,84.280705738,137.500713399,0.988009669
1775893693.168666,,,,,,,,,,,170000000.000000000,284.000000000,-82.492571119,81.802253625,0.987669303,,,,,
1775893693.168733,,,,,,,,,,,,,,,,170000000.000000000,284.000000000,84.446191471,137.548495028,0.987669303
1775893693.173293,,,,,,,,,,,175000000.000000000,284.000000000,-82.685010715,81.998276857,0.987324571,,,,,
1775893693.173330,,,,,,,,,,,,,,,,175000000.000000000,284.000000000,84.585026796,137.597900239,0.987324571
1775893693.177395,,,,,,,,,,,180000000.000000000,284.000000000,-82.840294921,82.153958511,0.986975892,,,,,
1775893693.177433,,,,,,,,,,,,,,,,180000000.000000000,284.000000000,84.696249682,137.648855871,0.986975892
1775893693.183015,,,,,,,,,,,185000000.000000000,284.000000000,-82.957442705,82.268064369,0.986624360,,,,,
1775893693.183072,,,,,,,,,,,,,,,,185000000.000000000,284.000000000,84.779110831,137.701213749,0.986624360
1775893693.187437,,,,,,,,,,,190000000.000000000,284.000000000,-83.035809073,82.339692568,0.986271741,,,,,
1775893693.187456,,,,,,,,,,,,,,,,190000000.000000000,284.000000000,84.833092653,137.754888750,0.986271741
1775893693.192127,,,,,,,,,,,195000000.000000000,284.000000000,-83.074883198,82.368056398,0.985920109,,,,,
1775893693.192153,,,,,,,,,,,,,,,,195000000.000000000,284.000000000,84.857760110,137.809862192,0.985920109
1775893693.197183,,,,,,,,,,,200000000.000000000,284.000000000,-83.074268943,82.352466777,0.985571863,,,,,
1775893693.197206,,,,,,,,,,,,,,,,200000000.000000000,284.000000000,84.852747427,137.866176336,0.985571863
1775893693.202986,,,,,,,,,,,205000000.000000000,284.000000000,-83.033465790,82.292121715,0.985229326,,,,,
1775893693.203052,,,,,,,,,,,,,,,,205000000.000000000,284.000000000,84.817603873,137.923821203,0.985229326
1775893693.207417,,,,,,,,,,,210000000.000000000,284.000000000,-82.951682610,82.185895909,0.984894605,,,,,
1775893693.207445,,,,,,,,,,,,,,,,210000000.000000000,284.000000000,84.751652632,137.982749404,0.984894605
1775893693.212961,,,,,,,,,,,215000000.000000000,284.000000000,-82.827997497,82.032524741,0.984569903,,,,,
1775893693.212994,,,,,,,,,,,,,,,,215000000.000000000,284.000000000,84.654111491,138.042846495,0.984569903
1775893693.219010,,,,,,,,,,,220000000.000000000,284.000000000,-82.661926968,81.831229943,0.984258466,,,,,
1775893693.219083,,,,,,,,,,,,,,,,220000000.000000000,284.000000000,84.524516225,138.103962512,0.984258466
1775893693.222666,,,,,,,,,,,225000000.000000000,284.000000000,-82.453396122,81.581672597,0.983964362,,,,,
1775893693.222694,,,,,,,,,,,,,,,,225000000.000000000,284.000000000,84.362693186,138.165991100,0.983964362
1775893693.227608,,,,,,,,,,,230000000.000000000,284.000000000,-82.202321027,81.283460535,0.983691790,,,,,
1775893693.227642,,,,,,,,,,,,,,,,230000000.000000000,284.000000000,84.168436479,138.228980079,0.983691790
1775893693.232928,,,,,,,,,,,235000000.000000000,284.000000000,-81.908227140,80.935756251,0.983444463,,,,,
1775893693.232985,,,,,,,,,,,,,,,,235000000.000000000,284.000000000,83.941229143,138.293005972,0.983444463
1775893693.238481,,,,,,,,,,,240000000.000000000,284.000000000,-81.570630906,80.537735097,0.983226315,,,,,
1775893693.238555,,,,,,,,,,,,,,,,240000000.000000000,284.000000000,83.680536973,138.358065243,0.983226315
1775893693.242524,,,,,,,,,,,245000000.000000000,284.000000000,-81.189278801,80.088878143,0.983041844,,,,,
1775893693.242561,,,,,,,,,,,,,,,,245000000.000000000,284.000000000,83.385993612,138.424023634,0.983041844
1775893693.247967,,,,,,,,,,,250000000.000000000,284.000000000,-80.764074106,79.588847817,0.982895988,,,,,
1775893693.248008,,,,,,,,,,,,,,,,250000000.000000000,284.000000000,83.057330146,138.490780606,0.982895988
1775893693.252587,,,,,,,,,,,255000000.000000000,284.000000000,-80.294888983,79.037258377,0.982793759,,,,,
1775893693.252620,,,,,,,,,,,,,,,,255000000.000000000,284.000000000,82.694224398,138.558330340,0.982793759
1775893693.256927,,,,,,,,,,,260000000.000000000,284.000000000,-79.781809824,78.433958861,0.982740601,,,,,
1775893693.256957,,,,,,,,,,,,,,,,260000000.000000000,284.000000000,82.296485748,138.626735723,0.982740601
1775893693.262685,,,,,,,,,,,265000000.000000000,284.000000000,-79.224979943,77.778885989,0.982741955,,,,,
1775893693.262727,,,,,,,,,,,,,,,,265000000.000000000,284.000000000,81.863941460,138.696055049,0.982741955
1775893693.267908,,,,,,,,,,,270000000.000000000,284.000000000,-78.624434025,77.071859867,0.982802975,,,,,
1775893693.267964,,,,,,,,,,,,,,,,270000000.000000000,284.000000000,81.396301080,138.766394497,0.982802975
1775893693.272330,,,,,,,,,,,275000000.000000000,284.000000000,-77.979984711,76.312493720,0.982928326,,,,,
1775893693.272385,,,,,,,,,,,,,,,,275000000.000000000,284.000000000,80.893074951,138.837824409,0.982928326
1775893693.276977,,,,,,,,,,,280000000.000000000,284.000000000,-77.291788964,75.500845905,0.983123094,,,,,
1775893693.277001,,,,,,,,,,,,,,,,280000000.000000000,284.000000000,80.354006111,138.910372746,0.983123094
1775893693.283763,,,,,,,,,,,285000000.000000000,284.000000000,-76.560254877,74.637310563,0.983392376,,,,,
1775893693.283834,,,,,,,,,,,,,,,,285000000.000000000,284.000000000,79.778995331,138.984059616,0.983392376
1775893693.287639,,,,,,,,,,,290000000.000000000,284.000000000,-75.785783901,73.722254908,0.983740697,,,,,
1775893693.287693,,,,,,,,,,,,,,,,290000000.000000000,284.000000000,79.167878264,139.059045012,0.983740697
1775893693.292233,,,,,,,,,,,295000000.000000000,284.000000000,-74.968383643,72.755622108,0.984171228,,,,,
1775893693.292276,,,,,,,,,,,,,,,,295000000.000000000,284.000000000,78.520130678,139.135535789,0.984171228
1775893693.297518,,,,,,,,,,,300000000.000000000,284.000000000,-74.108253710,71.737615213,0.984686651,,,,,
1775893693.297548,,,,,,,,,,,,,,,,300000000.000000000,284.000000000,77.835320751,139.213749644,0.984686651
1775893693.302244,,,,,,,,,,,305000000.000000000,284.000000000,-73.205696818,70.668622206,0.985288697,,,,,
1775893693.302277,,,,,,,,,,,,,,,,305000000.000000000,284.000000000,77.113043500,139.293884086,0.985288697
1775893693.306860,,,,,,,,,,,310000000.000000000,284.000000000,-72.260983748,69.548997456,0.985977698,,,,,
1775893693.306881,,,,,,,,,,,,,,,,310000000.000000000,284.000000000,76.352790203,139.376232677,0.985977698
1775893693.312095,,,,,,,,,,,315000000.000000000,284.000000000,-71.273951089,68.378640200,0.986751697,,,,,
1775893693.312126,,,,,,,,,,,,,,,,315000000.000000000,284.000000000,75.553630867,139.461130862,0.986751697
1775893693.318582,,,,,,,,,,,320000000.000000000,284.000000000,-70.241752910,67.155139203,0.987603210,,,,,
1775893693.318627,,,,,,,,,,,,,,,,320000000.000000000,284.000000000,74.712599674,139.548037010,0.987603210
1775893693.323368,,,,,,,,,,,325000000.000000000,284.000000000,-69.159649639,65.874663500,0.988521077,,,,,
1775893693.323433,,,,,,,,,,,,,,,,325000000.000000000,284.000000000,73.825246428,139.635768028,0.988521077
1775893693.327029,,,,,,,,,,,330000000.000000000,284.000000000,-68.023238880,64.533979807,0.989493340,,,,,
1775893693.327054,,,,,,,,,,,,,,,,330000000.000000000,284.000000000,72.887217683,139.723308413,0.989493340
1775893693.333192,,,,,,,,,,,335000000.000000000,284.000000000,-66.828907612,63.130797316,0.990507241,,,,,
1775893693.333264,,,,,,,,,,,,,,,,335000000.000000000,284.000000000,71.894552502,139.810013169,0.990507241
1775893693.338322,,,,,,,,,,,340000000.000000000,284.000000000,-65.572499300,61.662901671,0.991547142,,,,,
1775893693.338398,,,,,,,,,,,,,,,,340000000.000000000,284.000000000,70.842764466,139.894838243,0.991547142
1775893693.341830,,,,,,,,,,,345000000.000000000,284.000000000,-64.249064883,60.127932497,0.992594450,,,,,
1775893693.341847,,,,,,,,,,,,,,,,345000000.000000000,284.000000000,69.726595511,139.976396926,0.992594450
1775893693.347093,,,,,,,,,,,350000000.000000000,284.000000000,-62.855573610,58.525329890,0.993630089,,,,,
1775893693.347115,,,,,,,,,,,,,,,,350000000.000000000,284.000000000,68.541889985,140.054202042,0.993630089
1775893693.352382,,,,,,,,,,,355000000.000000000,284.000000000,-61.389199260,56.854885988,0.994632197,,,,,
1775893693.352429,,,,,,,,,,,,,,,,355000000.000000000,284.000000000,67.284315904,140.128025447,0.994632197
1775893693.357002,,,,,,,,,,,360000000.000000000,284.000000000,-59.847588351,55.117424882,0.995576951,,,,,
1775893693.357032,,,,,,,,,,,,,,,,360000000.000000000,284.000000000,65.949689244,140.197444989,0.995576951
1775893693.362577,,,,,,,,,,,365000000.000000000,284.000000000,-58.228589927,53.314677318,0.996439348,,,,,
1775893693.362609,,,,,,,,,,,,,,,,365000000.000000000,284.000000000,64.533792005,140.261663348,0.996439348
1775893693.368227,,,,,,,,,,,370000000.000000000,284.000000000,-56.531744891,51.450207804,0.997195731,,,,,
1775893693.368255,,,,,,,,,,,,,,,,370000000.000000000,284.000000000,63.033456486,140.320153795,0.997195731
1775893693.373741,,,,,,,,,,,375000000.000000000,284.000000000,-54.757173126,49.528299959,0.997825242,,,,,
1775893693.373815,,,,,,,,,,,,,,,,375000000.000000000,284.000000000,61.445696149,140.372430452,0.997825242
1775893693.377678,,,,,,,,,,,380000000.000000000,284.000000000,-52.906962503,47.555352612,0.998313561,,,,,
1775893693.377699,,,,,,,,,,,,,,,,380000000.000000000,284.000000000,59.768995881,140.417970628,0.998313561
1775893693.382832,,,,,,,,,,,385000000.000000000,284.000000000,-50.984759248,45.539475220,0.998655177,,,,,
1775893693.382887,,,,,,,,,,,,,,,,385000000.000000000,284.000000000,58.003144155,140.455980060,0.998655177
1775893693.387331,,,,,,,,,,,390000000.000000000,284.000000000,-48.997046465,43.490940778,0.998855322,,,,,
1775893693.387376,,,,,,,,,,,,,,,,390000000.000000000,284.000000000,56.150334887,140.485995351,0.998855322
1775893693.392058,,,,,,,,,,,395000000.000000000,284.000000000,-46.951310604,41.420533669,0.998929283,,,,,
1775893693.392072,,,,,,,,,,,,,,,,395000000.000000000,284.000000000,54.213856845,140.507397158,0.998929283
1775893693.396984,,,,,,,,,,,400000000.000000000,284.000000000,-44.857016591,39.340261601,0.998900743,,,,,
1775893693.397004,,,,,,,,,,,,,,,,400000000.000000000,284.000000000,52.199173635,140.519467585,0.998900743
1775893693.402585,,,,,,,,,,,405000000.000000000,284.000000000,-42.724191721,37.261764452,0.998798076,,,,,
1775893693.402636,,,,,,,,,,,,,,,,405000000.000000000,284.000000000,50.112795474,140.521379786,0.998798076
1775893693.407104,,,,,,,,,,,410000000.000000000,284.000000000,-40.563485533,35.195555952,0.998650702,,,,,
1775893693.407124,,,,,,,,,,,,,,,,410000000.000000000,284.000000000,47.962189164,140.512942796,0.998650702
1775893693.412285,,,,,,,,,,,415000000.000000000,284.000000000,-38.384089727,33.149839356,0.998485604,,,,,
1775893693.412343,,,,,,,,,,,,,,,,415000000.000000000,284.000000000,45.754119038,140.493812929,0.998485604
1775893693.416852,400000000.000000000,284.000000000,-39.808891764,35.279054549,1.000000000,,,,,,,,,,,,,,,
1775893693.416961,,,,,,400000000.000000000,284.000000000,47.550195221,139.672442755,1.000000000,,,,,,,,,,
1775893693.418638,,,,,,,,,,,420000000.000000000,284.000000000,-36.194444540,31.131540222,0.998325128,,,,,
1775893693.418678,,,,,,,,,,,,,,,,420000000.000000000,284.000000000,43.495453627,140.463220991,0.998325128
1775893693.422831,,,,,,,,,,,425000000.000000000,284.000000000,-34.002178805,29.146126956,0.998185514,,,,,
1775893693.422858,,,,,,,,,,,,,,,,425000000.000000000,284.000000000,41.193015548,140.420173479,0.998185514
1775893693.427031,,,,,,,,,,,430000000.000000000,284.000000000,-31.815084282,27.197607745,0.998076320,,,,,
1775893693.427058,,,,,,,,,,,,,,,,430000000.000000000,284.000000000,38.854129114,140.364625351,0.998076320
1775893693.433314,,,,,,,,,,,435000000.000000000,284.000000000,-29.640043380,25.288099102,0.998000447,,,,,
1775893693.433394,,,,,,,,,,,,,,,,435000000.000000000,284.000000000,36.485635828,140.297160929,0.998000447
1775893693.438320,,,,,,,,,,,440000000.000000000,284.000000000,-27.482469572,23.418898372,0.997955017,,,,,
1775893693.438462,,,,,,,,,,,,,,,,440000000.000000000,284.000000000,34.093886821,140.217289443,0.997955017
1775893693.442476,,,,,,,,,,,445000000.000000000,284.000000000,-25.346173305,21.591118166,0.997932970,,,,,
1775893693.442511,,,,,,,,,,,,,,,,445000000.000000000,284.000000000,31.684829777,140.122269859,0.997932970
1775893693.447521,,,,,,,,,,,450000000.000000000,284.000000000,-23.234993232,19.806411836,0.997925105,,,,,
1775893693.447548,,,,,,,,,,,,,,,,450000000.000000000,284.000000000,29.265400919,140.007579271,0.997925105
1775893693.453314,440000000.000000000,284.000000000,-39.808891764,35.279054549,1.000000000,,,,,,,,,,,,,,,
1775893693.453396,,,,,,440000000.000000000,284.000000000,47.550195221,139.672442755,1.000000000,,,,,,,,,,
1775893693.453423,,,,,,,,,,,455000000.000000000,284.000000000,-21.153422436,18.066722670,0.997922174,,,,,
1775893693.453465,,,,,,,,,,,,,,,,455000000.000000000,284.000000000,26.843809595,139.867582603,0.997922174
1775893693.457083,,,,,,,,,,,460000000.000000000,284.000000000,-19.105978754,16.374770772,0.997916701,,,,,
1775893693.457112,,,,,,,,,,,,,,,,460000000.000000000,284.000000000,24.429347580,139.693189223,0.997916701
1775893693.463228,,,,,,,,,,,465000000.000000000,284.000000000,-17.097272034,14.733533994,0.997904002,,,,,
1775893693.463276,,,,,,,,,,,,,,,,465000000.000000000,284.000000000,22.032080300,139.471391119,0.997904002
1775893693.469015,,,,,,,,,,,470000000.000000000,284.000000000,-15.132965858,13.145955875,0.997882393,,,,,
1775893693.469097,,,,,,,,,,,,,,,,470000000.000000000,284.000000000,19.663261904,139.185786760,0.997882393
1775893693.471922,,,,,,,,,,,475000000.000000000,284.000000000,-13.218790562,11.615174666,0.997852862,,,,,
1775893693.471947,,,,,,,,,,,,,,,,475000000.000000000,284.000000000,17.334658422,138.812089227,0.997852862
1775893693.477716,,,,,,,,,,,480000000.000000000,284.000000000,-11.357493464,10.144898120,0.997818296,,,,,
1775893693.477738,,,,,,,,,,,,,,,,480000000.000000000,284.000000000,15.056468545,138.304305333,0.997818296
1775893693.483808,,,,,,,,,,,485000000.000000000,284.000000000,-9.549304386,8.738947360,0.997781908,,,,,
1775893693.483870,,,,,,,,,,,,,,,,485000000.000000000,284.000000000,12.837364059,137.580585540,0.997781908
1775893693.488122,,,,,,,,,,,490000000.000000000,284.000000000,-7.793781520,7.399960503,0.997745940,,,,,
1775893693.488178,,,,,,,,,,,,,,,,490000000.000000000,284.000000000,10.685224894,136.502296976,0.997745940
1775893693.492249,,,,,,,,,,,495000000.000000000,284.000000000,-6.091899253,6.129597497,0.997710843,,,,,
1775893693.492285,,,,,,,,,,,,,,,,495000000.000000000,284.000000000,8.609473592,134.821919540,0.997710843
1775893693.494239,480000000.000000000,284.000000000,-39.808891764,35.279054549,1.000000000,,,,,,,,,,,,,,,
1775893693.494265,,,,,,480000000.000000000,284.000000000,47.550195221,139.672442755,1.000000000,,,,,,,,,,
1775893693.497390,,,,,,,,,,,500000000.000000000,284.000000000,-4.443538604,4.927106706,0.997676371,,,,,
1775893693.497418,,,,,,,,,,,,,,,,500000000.000000000,284.000000000,6.620270594,132.032744530,0.997676371
1775893693.502502,,,,,,,,,,,505000000.000000000,284.000000000,-2.847718405,3.790469444,0.997641532,,,,,
1775893693.502537,,,,,,,,,,,,,,,,505000000.000000000,284.000000000,4.736031214,126.899434973,0.997641532
1775893693.506858,,,,,,,,,,,510000000.000000000,284.000000000,-1.303370593,2.716889587,0.997605324,,,,,
1775893693.506873,,,,,,,,,,,,,,,,510000000.000000000,284.000000000,3.012503566,115.615483665,0.997605324
1775893693.512145,,,,,,,,,,,515000000.000000000,284.000000000,0.188763417,1.705287661,0.997566438,,,,,
1775893693.512176,,,,,,,,,,,,,,,,515000000.000000000,284.000000000,1.715690989,83.685300354,0.997566438
1775893693.518433,,,,,,,,,,,520000000.000000000,284.000000000,1.629575333,0.753655522,0.997525875,,,,,
1775893693.518504,,,,,,,,,,,,,,,,520000000.000000000,284.000000000,1.795243740,24.815245360,0.997525875
1775893693.523201,,,,,,,,,,,525000000.000000000,284.000000000,3.020896777,-0.140872667,0.997485718,,,,,
1775893693.523265,,,,,,,,,,,,,,,,525000000.000000000,284.000000000,3.024167486,-2.667458908,0.997485718
1775893693.527516,,,,,,,,,,,530000000.000000000,284.000000000,4.364582520,-0.981968965,0.997448843,,,,,
1775893693.527546,,,,,,,,,,,,,,,,530000000.000000000,284.000000000,4.472851994,-12.657062560,0.997448843
1775893693.534649,,,,,,,,,,,535000000.000000000,284.000000000,5.660214006,-1.771898826,0.997417188,,,,,
1775893693.534746,,,,,,,,,,,,,,,,535000000.000000000,284.000000000,5.927647485,-17.334446686,0.997417188
1775893693.538199,,,,,,,,,,,540000000.000000000,284.000000000,6.909249717,-2.513492731,0.997394321,,,,,
1775893693.538249,,,,,,,,,,,,,,,,540000000.000000000,284.000000000,7.343967189,-19.913120636,0.997394321
1775893693.538789,520000000.000000000,284.000000000,-39.808891764,35.279054549,1.000000000,,,,,,,,,,,,,,,
1775893693.538823,,,,,,520000000.000000000,284.000000000,47.550195221,139.672442755,1.000000000,,,,,,,,,,
1775893693.542093,,,,,,,,,,,545000000.000000000,284.000000000,8.114174304,-3.209395995,0.997383049,,,,,
1775893693.542116,,,,,,,,,,,,,,,,545000000.000000000,284.000000000,8.710204867,-21.469378059,0.997383049
1775893693.547204,,,,,,,,,,,550000000.000000000,284.000000000,9.276685792,-3.861629573,0.997384495,,,,,
1775893693.547230,,,,,,,,,,,,,,,,550000000.000000000,284.000000000,10.022750400,-22.453088351,0.997384495
1775893693.552317,,,,,,,,,,,555000000.000000000,284.000000000,10.396415819,-4.470986890,0.997398331,,,,,
1775893693.552375,,,,,,,,,,,,,,,,555000000.000000000,284.000000000,11.278916424,-23.083025714,0.997398331
1775893693.556828,,,,,,,,,,,560000000.000000000,284.000000000,11.474170926,-5.038806367,0.997423742,,,,,
1775893693.556856,,,,,,,,,,,,,,,,560000000.000000000,284.000000000,12.478755729,-23.479039821,0.997423742
1775893693.562300,,,,,,,,,,,565000000.000000000,284.000000000,12.511348360,-5.566672921,0.997459223,,,,,
1775893693.562334,,,,,,,,,,,,,,,,565000000.000000000,284.000000000,13.623685457,-23.711961104,0.997459223
1775893693.568450,,,,,,,,,,,570000000.000000000,284.000000000,13.507820625,-6.056177284,0.997502891,,,,,
1775893693.568521,,,,,,,,,,,,,,,,570000000.000000000,284.000000000,14.714141306,-23.828870679,0.997502891
1775893693.572296,,,,,,,,,,,575000000.000000000,284.000000000,14.462364150,-6.508352129,0.997552592,,,,,
1775893693.572371,,,,,,,,,,,,,,,,575000000.000000000,284.000000000,15.749592512,-23.861038451,0.997552592
1775893693.572581,560000000.000000000,284.000000000,-39.808891764,35.279054549,1.000000000,,,,,,,,,,,,,,,
1775893693.572618,,,,,,560000000.000000000,284.000000000,47.550195221,139.672442755,1.000000000,,,,,,,,,,
1775893693.577389,,,,,,,,,,,580000000.000000000,284.000000000,15.376070053,-6.925099639,0.997606367,,,,,
1775893693.577436,,,,,,,,,,,,,,,,580000000.000000000,284.000000000,16.732068711,-23.829619628,0.997606367
1775893693.582613,,,,,,,,,,,585000000.000000000,284.000000000,16.251619080,-7.308632756,0.997662446,,,,,
1775893693.582665,,,,,,,,,,,,,,,,585000000.000000000,284.000000000,17.665207624,-23.748556726,0.997662446
1775893693.587118,,,,,,,,,,,590000000.000000000,284.000000000,17.090322394,-7.660841833,0.997719333,,,,,
1775893693.587167,,,,,,,,,,,,,,,,590000000.000000000,284.000000000,18.551306267,-23.629025486,0.997719333
1775893693.591713,,,,,,,,,,,595000000.000000000,284.000000000,17.892571347,-7.982945597,0.997775939,,,,,
1775893693.591739,,,,,,,,,,,,,,,,595000000.000000000,284.000000000,19.391587028,-23.478951549,0.997775939
1775893693.597161,,,,,,,,,,,600000000.000000000,284.000000000,18.660471544,-8.276812843,0.997831582,,,,,
1775893693.597187,,,,,,,,,,,,,,,,600000000.000000000,284.000000000,20.189043315,-23.304140972,0.997831582
1775893693.602412,,,,,,,,,,,605000000.000000000,284.000000000,19.397164400,-8.544904199,0.997885819,,,,,
1775893693.602446,,,,,,,,,,,,,,,,605000000.000000000,284.000000000,20.947779674,-23.109494292,0.997885819
1775893693.607194,,,,,,,,,,,610000000.000000000,284.000000000,20.104455644,-8.790027309,0.997938375,,,,,
1775893693.607219,,,,,,,,,,,,,,,,610000000.000000000,284.000000000,21.670766893,-22.901355529,0.997938375
1775893693.612490,,,,,,,,,,,615000000.000000000,284.000000000,20.783588211,-9.014756031,0.997989209,,,,,
1775893693.612511,,,,,,,,,,,,,,,,615000000.000000000,284.000000000,22.360325795,-22.685202827,0.997989209
1775893693.618166,600000000.000000000,284.000000000,-39.808891764,35.279054549,1.000000000,,,,,,,,,,,,,,,
1775893693.618244,,,,,,600000000.000000000,284.000000000,47.550195221,139.672442755,1.000000000,,,,,,,,,,
1775893693.618444,,,,,,,,,,,620000000.000000000,284.000000000,21.437313006,-9.222030870,0.998038373,,,,,
1775893693.618463,,,,,,,,,,,,,,,,620000000.000000000,284.000000000,23.020200082,-22.465054576,0.998038373
1775893693.622743,,,,,,,,,,,625000000.000000000,284.000000000,22.069157456,-9.414483553,0.998085742,,,,,
1775893693.622793,,,,,,,,,,,,,,,,625000000.000000000,284.000000000,23.654668765,-22.243034246,0.998085742
1775893693.627798,,,,,,,,,,,630000000.000000000,284.000000000,22.681496217,-9.594204210,0.998131064,,,,,
1775893693.627836,,,,,,,,,,,,,,,,630000000.000000000,284.000000000,24.266739277,-22.021063962,0.998131064
1775893693.632181,,,,,,,,,,,635000000.000000000,284.000000000,23.275737142,-9.762933274,0.998174199,,,,,
1775893693.632216,,,,,,,,,,,,,,,,635000000.000000000,284.000000000,24.858389396,-21.801108669,0.998174199
1775893693.638050,,,,,,,,,,,640000000.000000000,284.000000000,23.853496616,-9.923299801,0.998215157,,,,,
1775893693.638081,,,,,,,,,,,,,,,,640000000.000000000,284.000000000,25.432023332,-21.586577332,0.998215157
1775893693.642445,,,,,,,,,,,645000000.000000000,284.000000000,24.416652010,-10.078593060,0.998253957,,,,,
1775893693.642487,,,,,,,,,,,,,,,,645000000.000000000,284.000000000,25.990428194,-21.381677073,0.998253957
1775893693.648257,,,,,,,,,,,650000000.000000000,284.000000000,24.966862166,-10.232082738,0.998290563,,,,,
1775893693.648289,,,,,,,,,,,,,,,,650000000.000000000,284.000000000,26.536122683,-21.190453113,0.998290563
1775893693.652781,,,,,,,,,,,655000000.000000000,284.000000000,25.505430373,-10.386349818,0.998324883,,,,,
1775893693.652852,,,,,,,,,,,,,,,,655000000.000000000,284.000000000,27.071041015,-21.015665023,0.998324883
1775893693.654348,640000000.000000000,284.000000000,-39.808891764,35.279054549,1.000000000,,,,,,,,,,,,,,,
1775893693.654420,,,,,,640000000.000000000,284.000000000,47.550195221,139.672442755,1.000000000,,,,,,,,,,
1775893693.657375,,,,,,,,,,,660000000.000000000,284.000000000,26.033519886,-10.543744980,0.998356815,,,,,
1775893693.657401,,,,,,,,,,,,,,,,660000000.000000000,284.000000000,27.596882442,-20.859581731,0.998356815
1775893693.662266,,,,,,,,,,,665000000.000000000,284.000000000,26.551999809,-10.706003654,0.998386337,,,,,
1775893693.662290,,,,,,,,,,,,,,,,665000000.000000000,284.000000000,28.114870844,-20.723455109,0.998386337
1775893693.667579,,,,,,,,,,,670000000.000000000,284.000000000,27.061593563,-10.874811970,0.998413532,,,,,
1775893693.667635,,,,,,,,,,,,,,,,670000000.000000000,284.000000000,28.626065199,-20.608498887,0.998413532
1775893693.673277,,,,,,,,,,,675000000.000000000,284.000000000,27.562980467,-11.051997824,0.998438555,,,,,
1775893693.673309,,,,,,,,,,,,,,,,675000000.000000000,284.000000000,29.131508826,-20.516139581,0.998438555
1775893693.677385,,,,,,,,,,,680000000.000000000,284.000000000,28.056903989,-11.239805441,0.998461536,,,,,
1775893693.677421,,,,,,,,,,,,,,,,680000000.000000000,284.000000000,29.632403830,-20.448376424,0.998461536
1775893693.683610,,,,,,,,,,,685000000.000000000,284.000000000,28.543982560,-11.440432963,0.998482528,,,,,
1775893693.683679,,,,,,,,,,,,,,,,685000000.000000000,284.000000000,30.129810956,-20.407091613,0.998482528
1775893693.689051,,,,,,,,,,,690000000.000000000,284.000000000,29.024578422,-11.655654101,0.998501540,,,,,
1775893693.689097,,,,,,,,,,,,,,,,690000000.000000000,284.000000000,30.624434526,-20.393532591,0.998501540
1775893693.692131,,,,,,,,,,,695000000.000000000,284.000000000,29.498781670,-11.886747428,0.998518597,,,,,
1775893693.692175,,,,,,,,,,,,,,,,695000000.000000000,284.000000000,31.116599650,-20.408266690,0.998518597
1775893693.694293,680000000.000000000,284.000000000,-39.808891764,35.279054549,1.000000000,,,,,,,,,,,,,,,
1775893693.694315,,,,,,680000000.000000000,284.000000000,47.550195221,139.672442755,1.000000000,,,,,,,,,,
1775893693.697549,,,,,,,,,,,700000000.000000000,284.000000000,29.966611875,-12.134674060,0.998533811,,,,,
1775893693.697574,,,,,,,,,,,,,,,,700000000.000000000,284.000000000,31.606491654,-20.451376902,0.998533811
1775893693.702600,,,,,,,,,,,705000000.000000000,284.000000000,30.428302354,-12.400130176,0.998547376,,,,,
1775893693.702644,,,,,,,,,,,,,,,,705000000.000000000,284.000000000,32.094432136,-20.522374514,0.998547376
1775893693.706772,,,,,,,,,,,710000000.000000000,284.000000000,30.884422356,-12.683739449,0.998559480,,,,,
1775893693.706788,,,,,,,,,,,,,,,,710000000.000000000,284.000000000,32.581040713,-20.620443294,0.998559480
1775893693.711838,,,,,,,,,,,715000000.000000000,284.000000000,31.335768247,-12.986108180,0.998570214,,,,,
1775893693.711860,,,,,,,,,,,,,,,,715000000.000000000,284.000000000,33.067148307,-20.744613571,0.998570214
1775893693.717489,,,,,,,,,,,720000000.000000000,284.000000000,31.782857795,-13.307659574,0.998579549,,,,,
1775893693.717537,,,,,,,,,,,,,,,,720000000.000000000,284.000000000,33.553295932,-20.893888478,0.998579549
1775893693.723249,,,,,,,,,,,725000000.000000000,284.000000000,32.225776289,-13.648709523,0.998587405,,,,,
1775893693.723282,,,,,,,,,,,,,,,,725000000.000000000,284.000000000,34.039618580,-21.067482133,0.998587405
1775893693.726983,,,,,,,,,,,730000000.000000000,284.000000000,32.664192323,-14.009471552,0.998593742,,,,,
1775893693.727016,,,,,,,,,,,,,,,,730000000.000000000,284.000000000,34.525865065,-21.264822082,0.998593742
1775893693.733082,,,,,,,,,,,735000000.000000000,284.000000000,33.097856338,-14.390170410,0.998598615,,,,,
1775893693.733111,,,,,,,,,,,,,,,,735000000.000000000,284.000000000,35.011876816,-21.485350199,0.998598615
1775893693.738361,,,,,,,,,,,740000000.000000000,284.000000000,33.526795605,-14.790808515,0.998602146,,,,,
1775893693.738466,,,,,,,,,,,,,,,,740000000.000000000,284.000000000,35.497698329,-21.728049818,0.998602146
1775893693.738733,720000000.000000000,284.000000000,-39.808891764,35.279054549,1.000000000,,,,,,,,,,,,,,,
1775893693.738779,,,,,,720000000.000000000,284.000000000,47.550195221,139.672442755,1.000000000,,,,,,,,,,
1775893693.742240,,,,,,,,,,,745000000.000000000,284.000000000,33.951372813,-15.211074286,0.998604440,,,,,
1775893693.742269,,,,,,,,,,,,,,,,745000000.000000000,284.000000000,35.983598997,-21.991296373,0.998604440
1775893693.747178,,,,,,,,,,,750000000.000000000,284.000000000,34.372177335,-15.650533965,0.998605530,,,,,
1775893693.747201,,,,,,,,,,,,,,,,750000000.000000000,284.000000000,36.470019202,-22.273222374,0.998605530
1775893693.752599,,,,,,,,,,,755000000.000000000,284.000000000,34.789780798,-16.108905883,0.998605355,,,,,
1775893693.752648,,,,,,,,,,,,,,,,755000000.000000000,284.000000000,36.957421775,-22.572267974,0.998605355
1775893693.756866,,,,,,,,,,,760000000.000000000,284.000000000,35.204440636,-16.585875836,0.998603831,,,,,
1775893693.756885,,,,,,,,,,,,,,,,760000000.000000000,284.000000000,37.445983584,-22.887141452,0.998603831
1775893693.762207,,,,,,,,,,,765000000.000000000,284.000000000,35.616100858,-17.081104767,0.998600891,,,,,
1775893693.762256,,,,,,,,,,,,,,,,765000000.000000000,284.000000000,37.935603235,-23.216832535,0.998600891
1775893693.768040,,,,,,,,,,,770000000.000000000,284.000000000,36.024620554,-17.594278472,0.998596521,,,,,
1775893693.768072,,,,,,,,,,,,,,,,770000000.000000000,284.000000000,38.426117394,-23.560505121,0.998596521
1775893693.772422,760000000.000000000,284.000000000,-39.808891764,35.279054549,1.000000000,,,,,,,,,,,,,,,
1775893693.772470,,,,,,760000000.000000000,284.000000000,47.550195221,139.672442755,1.000000000,,,,,,,,,,
1775893693.773092,,,,,,,,,,,775000000.000000000,284.000000000,36.430045533,-18.125059726,0.998590740,,,,,
1775893693.773120,,,,,,,,,,,,,,,,775000000.000000000,284.000000000,38.917522118,-23.917223283,0.998590740
1775893693.777483,,,,,,,,,,,780000000.000000000,284.000000000,36.832535821,-18.672761194,0.998583573,,,,,
1775893693.777515,,,,,,,,,,,,,,,,780000000.000000000,284.000000000,39.409816550,-24.285597570,0.998583573
1775893693.782377,,,,,,,,,,,785000000.000000000,284.000000000,37.232257707,-19.236512799,0.998575040,,,,,
1775893693.782408,,,,,,,,,,,,,,,,785000000.000000000,284.000000000,39.902951028,-24.664096895,0.998575040
1775893693.787512,,,,,,,,,,,790000000.000000000,284.000000000,37.629349491,-19.815656772,0.998565168,,,,,
1775893693.787547,,,,,,,,,,,,,,,,790000000.000000000,284.000000000,40.396905232,-25.051560065,0.998565168
1775893693.791795,,,,,,,,,,,795000000.000000000,284.000000000,38.024045029,-20.409982302,0.998553996,,,,,
1775893693.791820,,,,,,,,,,,,,,,,795000000.000000000,284.000000000,40.891858864,-25.447353438,0.998553996
1775893693.797272,,,,,,,,,,,800000000.000000000,284.000000000,38.416436932,-21.019125562,0.998541537,,,,,
1775893693.797295,,,,,,,,,,,,,,,,800000000.000000000,284.000000000,41.387828577,-25.850817070,0.998541537
1775893693.802886,,,,,,,,,,,805000000.000000000,284.000000000,38.806550941,-21.642501928,0.998527801,,,,,
1775893693.802936,,,,,,,,,,,,,,,,805000000.000000000,284.000000000,41.884712404,-26.261139549,0.998527801
1775893693.807003,,,,,,,,,,,810000000.000000000,284.000000000,39.194401400,-22.279347854,0.998512786,,,,,
1775893693.807030,,,,,,,,,,,,,,,,810000000.000000000,284.000000000,42.382346608,-26.677375504,0.998512786
1775893693.811901,,,,,,,,,,,815000000.000000000,284.000000000,39.580094113,-22.928839599,0.998496508,,,,,
1775893693.811924,,,,,,,,,,,,,,,,815000000.000000000,284.000000000,42.880621172,-27.098503539,0.998496508
1775893693.818578,,,,,,,,,,,820000000.000000000,284.000000000,39.963525497,-23.589936177,0.998478971,,,,,
1775893693.818665,,,,,,,,,,,,,,,,820000000.000000000,284.000000000,43.379190330,-27.523497405,0.998478971
1775893693.818722,800000000.000000000,284.000000000,-39.808891764,35.279054549,1.000000000,,,,,,,,,,,,,,,
1775893693.818752,,,,,,800000000.000000000,284.000000000,47.550195221,139.672442755,1.000000000,,,,,,,,,,
1775893693.823677,,,,,,,,,,,825000000.000000000,284.000000000,40.344542567,-24.261643568,0.998460243,,,,,
1775893693.823716,,,,,,,,,,,,,,,,825000000.000000000,284.000000000,43.877681534,-27.951499200,0.998460243
1775893693.827520,,,,,,,,,,,830000000.000000000,284.000000000,40.723060477,-24.943227019,0.998440416,,,,,
1775893693.827570,,,,,,,,,,,,,,,,830000000.000000000,284.000000000,44.375852838,-28.381945133,0.998440416
1775893693.832800,,,,,,,,,,,835000000.000000000,284.000000000,41.099266497,-25.634255568,0.998419603,,,,,
1775893693.832886,,,,,,,,,,,,,,,,835000000.000000000,284.000000000,44.873765065,-28.814417726,0.998419603
1775893693.838421,,,,,,,,,,,840000000.000000000,284.000000000,41.473173236,-26.334094680,0.998397823,,,,,
1775893693.838468,,,,,,,,,,,,,,,,840000000.000000000,284.000000000,45.371280099,-29.248456831,0.998397823
1775893693.842470,,,,,,,,,,,845000000.000000000,284.000000000,41.844653001,-27.041827462,0.998375091,,,,,
1775893693.842531,,,,,,,,,,,,,,,,845000000.000000000,284.000000000,45.868067546,-29.683459951,0.998375091
1775893693.848235,,,,,,,,,,,850000000.000000000,284.000000000,42.213519658,-27.756599223,0.998351435,,,,,
1775893693.848261,,,,,,,,,,,,,,,,850000000.000000000,284.000000000,46.363773669,-30.118988250,0.998351435
1775893693.853489,,,,,,,,,,,855000000.000000000,284.000000000,42.579786885,-28.477742376,0.998326939,,,,,
1775893693.853549,,,,,,,,,,,,,,,,855000000.000000000,284.000000000,46.858254973,-30.554664578,0.998326939
1775893693.854684,840000000.000000000,284.000000000,-39.808891764,35.279054549,1.000000000,,,,,,,,,,,,,,,
1775893693.854710,,,,,,840000000.000000000,284.000000000,47.550195221,139.672442755,1.000000000,,,,,,,,,,
1775893693.857385,,,,,,,,,,,860000000.000000000,284.000000000,42.943339617,-29.204392372,0.998301629,,,,,
1775893693.857399,,,,,,,,,,,,,,,,860000000.000000000,284.000000000,47.351212041,-30.990047937,0.998301629
1775893693.863050,,,,,,,,,,,865000000.000000000,284.000000000,43.304034431,-29.935599878,0.998275570,,,,,
1775893693.863108,,,,,,,,,,,,,,,,865000000.000000000,284.000000000,47.842300365,-31.424667928,0.998275570
1775893693.868072,,,,,,,,,,,870000000.000000000,284.000000000,43.661733494,-30.670529350,0.998248831,,,,,
1775893693.868140,,,,,,,,,,,,,,,,870000000.000000000,284.000000000,48.331217410,-31.858196929,0.998248831
1775893693.872763,,,,,,,,,,,875000000.000000000,284.000000000,44.016473638,-31.408596293,0.998221508,,,,,
1775893693.872795,,,,,,,,,,,,,,,,875000000.000000000,284.000000000,48.817867236,-32.290428339,0.998221508
1775893693.877065,,,,,,,,,,,880000000.000000000,284.000000000,44.368015412,-32.149031388,0.998193591,,,,,
1775893693.877090,,,,,,,,,,,,,,,,880000000.000000000,284.000000000,49.301900686,-32.721230407,0.998193591
1775893693.883526,,,,,,,,,,,885000000.000000000,284.000000000,44.716003718,-32.890981569,0.998165115,,,,,
1775893693.883574,,,,,,,,,,,,,,,,885000000.000000000,284.000000000,49.782868476,-33.150511680,0.998165115
1775893693.888638,,,,,,,,,,,890000000.000000000,284.000000000,45.060122573,-33.633693209,0.998136152,,,,,
1775893693.888687,,,,,,,,,,,,,,,,890000000.000000000,284.000000000,50.260390291,-33.578263534,0.998136152
1775893693.892382,,,,,,,,,,,895000000.000000000,284.000000000,45.400377662,-34.376584112,0.998106822,,,,,
1775893693.892414,,,,,,,,,,,,,,,,895000000.000000000,284.000000000,50.734368186,-34.004362733,0.998106822
1775893693.894176,880000000.000000000,284.000000000,-39.808891764,35.279054549,1.000000000,,,,,,,,,,,,,,,
1775893693.894211,,,,,,880000000.000000000,284.000000000,47.550195221,139.672442755,1.000000000,,,,,,,,,,
1775893693.898000,,,,,,,,,,,900000000.000000000,284.000000000,45.736573099,-35.118858540,0.998077117,,,,,
1775893693.898027,,,,,,,,,,,,,,,,900000000.000000000,284.000000000,51.204498888,-34.428662579,0.998077117
1775893693.902903,,,,,,,,,,,905000000.000000000,284.000000000,46.068377257,-35.859576446,0.998047048,,,,,
1775893693.902981,,,,,,,,,,,,,,,,905000000.000000000,284.000000000,51.670345607,-34.851006792,0.998047048
1775893693.907537,,,,,,,,,,,910000000.000000000,284.000000000,46.395397894,-36.597839897,0.998016651,,,,,
1775893693.907558,,,,,,,,,,,,,,,,910000000.000000000,284.000000000,52.131452976,-35.271344850,0.998016651
1775893693.912085,,,,,,,,,,,915000000.000000000,284.000000000,46.717443950,-37.333030572,0.997986045,,,,,
1775893693.912108,,,,,,,,,,,,,,,,915000000.000000000,284.000000000,52.587597610,-35.689714122,0.997986045
1775893693.918157,,,,,,,,,,,920000000.000000000,284.000000000,47.034173708,-38.064483531,0.997955279,,,,,
1775893693.918239,,,,,,,,,,,,,,,,920000000.000000000,284.000000000,53.038449310,-36.106244317,0.997955279
1775893693.922359,,,,,,,,,,,925000000.000000000,284.000000000,47.345239104,-38.791508215,0.997924420,,,,,
1775893693.922400,,,,,,,,,,,,,,,,925000000.000000000,284.000000000,53.483673200,-36.521041761,0.997924420
1775893693.927090,,,,,,,,,,,930000000.000000000,284.000000000,47.650303500,-39.513452303,0.997893523,,,,,
1775893693.927119,,,,,,,,,,,,,,,,930000000.000000000,284.000000000,53.922962120,-36.934232681,0.997893523
1775893693.934097,,,,,,,,,,,935000000.000000000,284.000000000,47.949199374,-40.229720748,0.997862660,,,,,
1775893693.934209,,,,,,,,,,,,,,,,935000000.000000000,284.000000000,54.356137595,-37.345826143,0.997862660
1775893693.935288,920000000.000000000,284.000000000,-39.808891764,35.279054549,1.000000000,,,,,,,,,,,,,,,
1775893693.935337,,,,,,920000000.000000000,284.000000000,47.550195221,139.672442755,1.000000000,,,,,,,,,,
1775893693.938367,,,,,,,,,,,940000000.000000000,284.000000000,48.241508799,-40.939411189,0.997831795,,,,,
1775893693.938405,,,,,,,,,,,,,,,,940000000.000000000,284.000000000,54.782763618,-37.755760043,0.997831795
1775893693.941986,,,,,,,,,,,945000000.000000000,284.000000000,48.526751955,-41.641592085,0.997800970,,,,,
1775893693.942008,,,,,,,,,,,,,,,,945000000.000000000,284.000000000,55.202362029,-38.163992202,0.997800970
1775893693.947376,,,,,,,,,,,950000000.000000000,284.000000000,48.804453976,-42.335513132,0.997770276,,,,,
1775893693.947397,,,,,,,,,,,,,,,,950000000.000000000,284.000000000,55.614528648,-38.570638717,0.997770276
1775893693.954036,,,,,,,,,,,955000000.000000000,284.000000000,49.074405484,-43.020749028,0.997739890,,,,,
1775893693.954109,,,,,,,,,,,,,,,,955000000.000000000,284.000000000,56.019135443,-38.975855117,0.997739890
1775893693.957613,,,,,,,,,,,960000000.000000000,284.000000000,49.336181942,-43.696683001,0.997709821,,,,,
1775893693.957670,,,,,,,,,,,,,,,,960000000.000000000,284.000000000,56.415864198,-39.379800523,0.997709821
1775893693.963113,,,,,,,,,,,965000000.000000000,284.000000000,49.589232813,-44.362563921,0.997680088,,,,,
1775893693.963171,,,,,,,,,,,,,,,,965000000.000000000,284.000000000,56.804281900,-39.782606692,0.997680088
1775893693.968899,,,,,,,,,,,970000000.000000000,284.000000000,49.832979914,-45.017673797,0.997650738,,,,,
1775893693.968927,,,,,,,,,,,,,,,,970000000.000000000,284.000000000,57.183959153,-40.184443878,0.997650738
1775893693.973294,,,,,,,,,,,975000000.000000000,284.000000000,50.067026045,-45.661445752,0.997621883,,,,,
1775893693.973345,,,,,,,,,,,,,,,,975000000.000000000,284.000000000,57.554626722,-40.585426487,0.997621883
1775893693.976948,,,,,,,,,,,980000000.000000000,284.000000000,50.290859586,-46.293171085,0.997593571,,,,,
1775893693.976975,,,,,,,,,,,,,,,,980000000.000000000,284.000000000,57.915901849,-40.985616895,0.997593571
1775893693.982243,,,,,,,,,,,985000000.000000000,284.000000000,50.504013333,-46.912163211,0.997565911,,,,,
1775893693.982268,,,,,,,,,,,,,,,,985000000.000000000,284.000000000,58.267434840,-41.385026175,0.997565911
1775893693.987505,,,,,,,,,,,990000000.000000000,284.000000000,50.706055854,-47.517825429,0.997539018,,,,,
1775893693.987538,,,,,,,,,,,,,,,,990000000.000000000,284.000000000,58.608928833,-41.783688191,0.997539018
1775893693.992117,,,,,,,,,,,995000000.000000000,284.000000000,50.896609498,-48.109680301,0.997512989,,,,,
1775893693.992133,,,,,,,,,,,,,,,,995000000.000000000,284.000000000,58.940159740,-42.181670099,0.997512989
1775893693.997436,,,,,,,,,,,0.000000000,285.000000000,51.074988071,-48.687058784,0.997487807,,,,,
1775893693.997464,,,,,,,,,,,,,,,,0.000000000,285.000000000,59.260672931,-42.579129564,0.997487807
1775893694.003729,,,,,,,,,,,5000000.000000000,285.000000000,51.240381521,-49.249212951,0.997463503,,,,,
1775893694.003834,,,,,,,,,,,,,,,,5000000.000000000,285.000000000,59.569925373,-42.976239045,0.997463503
1775893694.007576,,,,,,,,,,,10000000.000000000,285.000000000,51.391975329,-49.795463070,0.997440175,,,,,
1775893694.007613,,,,,,,,,,,,,,,,10000000.000000000,285.000000000,59.867404698,-43.373210592,0.997440175
1775893694.012320,,,,,,,,,,,15000000.000000000,285.000000000,51.529266924,-50.325403591,0.997418053,,,,,
1775893694.012355,,,,,,,,,,,,,,,,15000000.000000000,285.000000000,60.152862268,-43.770180298,0.997418053
1775893694.018770,,,,,,,,,,,20000000.000000000,285.000000000,51.651783920,-50.838566973,0.997397270,,,,,
1775893694.018826,,,,,,,,,,,,,,,,20000000.000000000,285.000000000,60.426034863,-44.167156255,0.997397270
1775893694.023223,,,,,,,,,,,25000000.000000000,285.000000000,51.759054295,-51.334506019,0.997377956,,,,,
1775893694.023293,,,,,,,,,,,,,,,,25000000.000000000,285.000000000,60.686662943,-44.564131852,0.997377956
1775893694.027090,,,,,,,,,,,30000000.000000000,285.000000000,51.850455948,-51.812753632,0.997360169,,,,,
1775893694.027110,,,,,,,,,,,,,,,,30000000.000000000,285.000000000,60.934406697,-44.961199683,0.997360169
1775893694.032247,,,,,,,,,,,35000000.000000000,285.000000000,51.925227211,-52.272818548,0.997343938,,,,,
1775893694.032272,,,,,,,,,,,,,,,,35000000.000000000,285.000000000,61.168853059,-45.358536629,0.997343938
1775893694.040490,,,,,,,,,,,40000000.000000000,285.000000000,51.982368605,-52.714013190,0.997329256,,,,,
1775893694.040581,,,,,,,,,,,,,,,,40000000.000000000,285.000000000,61.389400839,-45.756326348,0.997329256
1775893694.041978,,,,,,,,,,,45000000.000000000,285.000000000,52.020964135,-53.135718246,0.997316250,,,,,
1775893694.042019,,,,,,,,,,,,,,,,45000000.000000000,285.000000000,61.595515888,-46.154699740,0.997316250
1775893694.047785,,,,,,,,,,,50000000.000000000,285.000000000,52.040298844,-53.537511878,0.997305128,,,,,
1775893694.047832,,,,,,,,,,,,,,,,50000000.000000000,285.000000000,61.786835160,-46.553750119,0.997305128
1775893694.053009,,,,,,,,,,,55000000.000000000,285.000000000,52.039838520,-53.919141015,0.997296120,,,,,
1775893694.053109,,,,,,,,,,,,,,,,55000000.000000000,285.000000000,61.963141907,-46.953528745,0.997296120
1775893694.057810,,,,,,,,,,,60000000.000000000,285.000000000,52.019016761,-54.280354101,0.997289358,,,,,
1775893694.057848,,,,,,,,,,,,,,,,60000000.000000000,285.000000000,62.124200711,-47.354092843,0.997289358
1775893694.062788,,,,,,,,,,,65000000.000000000,285.000000000,51.977113234,-54.620804168,0.997284888,,,,,
1775893694.062861,,,,,,,,,,,,,,,,65000000.000000000,285.000000000,62.269664825,-47.755529917,0.997284888
1775893694.067770,,,,,,,,,,,70000000.000000000,285.000000000,51.913198387,-54.940014707,0.997282706,,,,,
1775893694.067825,,,,,,,,,,,,,,,,70000000.000000000,285.000000000,62.399040495,-48.157977490,0.997282706
1775893694.072267,,,,,,,,,,,75000000.000000000,285.000000000,51.826321703,-55.237495653,0.997282853,,,,,
1775893694.072307,,,,,,,,,,,,,,,,75000000.000000000,285.000000000,62.511815510,-48.561551842,0.997282853
1775893694.077052,,,,,,,,,,,80000000.000000000,285.000000000,51.715547166,-55.512733985,0.997285401,,,,,
1775893694.077083,,,,,,,,,,,,,,,,80000000.000000000,285.000000000,62.607466104,-48.966303763,0.997285401
1775893694.083112,,,,,,,,,,,85000000.000000000,285.000000000,51.580169402,-55.765383758,0.997290522,,,,,
1775893694.083151,,,,,,,,,,,,,,,,85000000.000000000,285.000000000,62.685626740,-49.372203968,0.997290522
1775893694.088223,,,,,,,,,,,90000000.000000000,285.000000000,51.419582977,-55.995261702,0.997298382,,,,,
1775893694.088285,,,,,,,,,,,,,,,,90000000.000000000,285.000000000,62.746038694,-49.779279178,0.997298382
1775893694.092116,,,,,,,,,,,95000000.000000000,285.000000000,51.233128300,-56.202227070,0.997309078,,,,,
1775893694.092167,,,,,,,,,,,,,,,,95000000.000000000,285.000000000,62.788436407,-50.187646145,0.997309078
1775893694.097673,,,,,,,,,,,100000000.000000000,285.000000000,51.019929217,-56.386022056,0.997322597,,,,,
1775893694.097704,,,,,,,,,,,,,,,,100000000.000000000,285.000000000,62.812411645,-50.597507780,0.997322597
1775893694.103831,,,,,,,,,,,105000000.000000000,285.000000000,50.779043877,-56.546297567,0.997338903,,,,,
1775893694.103943,,,,,,,,,,,,,,,,105000000.000000000,285.000000000,62.817478694,-51.009029319,0.997338903
1775893694.106969,,,,,,,,,,,110000000.000000000,285.000000000,50.509611969,-56.682697001,0.997357991,,,,,
1775893694.106989,,,,,,,,,,,,,,,,110000000.000000000,285.000000000,62.803164574,-51.422284375,0.997357991
1775893694.112218,,,,,,,,,,,115000000.000000000,285.000000000,50.210896152,-56.794908604,0.997379884,,,,,
1775893694.112243,,,,,,,,,,,,,,,,115000000.000000000,285.000000000,62.769046639,-51.837277009,0.997379884
1775893694.118239,,,,,,,,,,,120000000.000000000,285.000000000,49.882374137,-56.882760709,0.997404636,,,,,
1775893694.118297,,,,,,,,,,,,,,,,120000000.000000000,285.000000000,62.714830843,-52.253960985,0.997404636
1775893694.122131,,,,,,,,,,,125000000.000000000,285.000000000,49.523601374,-56.946162899,0.997432248,,,,,
1775893694.122186,,,,,,,,,,,,,,,,125000000.000000000,285.000000000,62.640274876,-52.672322490,0.997432248
1775893694.126988,,,,,,,,,,,130000000.000000000,285.000000000,49.134032457,-56.984999911,0.997462634,,,,,
1775893694.127023,,,,,,,,,,,,,,,,130000000.000000000,285.000000000,62.545074606,-53.092449245,0.997462634
1775893694.132711,,,,,,,,,,,135000000.000000000,285.000000000,48.712961200,-56.999004738,0.997495614,,,,,
1775893694.132754,,,,,,,,,,,,,,,,135000000.000000000,285.000000000,62.428774329,-53.514459135,0.997495614
1775893694.136020,120000000.000000000,285.000000000,41.279289549,-49.221633575,1.000000000,,,,,,,,,,,,,,,
1775893694.136092,,,,,,120000000.000000000,285.000000000,55.486240274,-52.867413407,1.000000000,,,,,,,,,,
1775893694.139431,,,,,,,,,,,140000000.000000000,285.000000000,48.259695398,-56.987888574,0.997531030,,,,,
1775893694.139492,,,,,,,,,,,,,,,,140000000.000000000,285.000000000,62.290891107,-53.938473248,0.997531030
1775893694.142695,,,,,,,,,,,145000000.000000000,285.000000000,47.773778318,-56.951434856,0.997568755,,,,,
1775893694.142765,,,,,,,,,,,,,,,,145000000.000000000,285.000000000,62.131031165,-54.364511003,0.997568755
1775893694.147659,,,,,,,,,,,150000000.000000000,285.000000000,47.254941379,-56.889558021,0.997608692,,,,,
1775893694.147684,,,,,,,,,,,,,,,,150000000.000000000,285.000000000,61.948908488,-54.792608502,0.997608692
1775893694.152948,,,,,,,,,,,155000000.000000000,285.000000000,46.702951636,-56.802158479,0.997650647,,,,,
1775893694.153015,,,,,,,,,,,,,,,,155000000.000000000,285.000000000,61.744214803,-55.222822485,0.997650647
1775893694.157874,,,,,,,,,,,160000000.000000000,285.000000000,46.117670210,-56.689141003,0.997694370,,,,,
1775893694.157902,,,,,,,,,,,,,,,,160000000.000000000,285.000000000,61.516645236,-55.655202952,0.997694370
1775893694.162688,,,,,,,,,,,165000000.000000000,285.000000000,45.498962294,-56.550342279,0.997739530,,,,,
1775893694.162740,,,,,,,,,,,,,,,,165000000.000000000,285.000000000,61.265827092,-56.089813089,0.997739530
1775893694.168409,,,,,,,,,,,170000000.000000000,285.000000000,44.846730322,-56.385564058,0.997785780,,,,,
1775893694.168485,,,,,,,,,,,,,,,,170000000.000000000,285.000000000,60.991346900,-56.526741516,0.997785780
1775893694.173050,,,,,,,,,,,175000000.000000000,285.000000000,44.160953322,-56.194575744,0.997832777,,,,,
1775893694.173086,,,,,,,,,,,,,,,,175000000.000000000,285.000000000,60.692760042,-56.966078461,0.997832777
1775893694.173690,160000000.000000000,285.000000000,40.429411814,-49.130932674,1.000000000,,,,,,,,,,,,,,,
1775893694.173716,,,,,,160000000.000000000,285.000000000,55.143228182,-53.603121779,1.000000000,,,,,,,,,,
1775893694.176867,,,,,,,,,,,180000000.000000000,285.000000000,43.441965527,-55.977295910,0.997880221,,,,,
1775893694.176883,,,,,,,,,,,,,,,,180000000.000000000,285.000000000,60.369777145,-57.407850833,0.997880221
1775893694.182104,,,,,,,,,,,185000000.000000000,285.000000000,42.690390191,-55.733774557,0.997927800,,,,,
1775893694.182129,,,,,,,,,,,,,,,,185000000.000000000,285.000000000,60.022236365,-57.852072996,0.997927800
1775893694.188214,,,,,,,,,,,190000000.000000000,285.000000000,41.906962123,-55.464102153,0.997975143,,,,,
1775893694.188261,,,,,,,,,,,,,,,,190000000.000000000,285.000000000,59.650000937,-58.298823554,0.997975143
1775893694.192624,,,,,,,,,,,195000000.000000000,285.000000000,41.092334753,-55.168186535,0.998021765,,,,,
1775893694.192648,,,,,,,,,,,,,,,,195000000.000000000,285.000000000,59.252762247,-58.748209674,0.998021765
1775893694.197767,,,,,,,,,,,200000000.000000000,285.000000000,40.247354417,-54.845973048,0.998067217,,,,,
