__time,/uav/cv/swing_angle/cartesian/header/stamp/nanosec,/uav/cv/swing_angle/cartesian/header/stamp/sec,/uav/cv/swing_angle/cartesian/vector/x,/uav/cv/swing_angle/cartesian/vector/y,/uav/cv/swing_angle/cartesian/vector/z,/uav/cv/swing_angle/polar/header/stamp/nanosec,/uav/cv/swing_angle/polar/header/stamp/sec,/uav/cv/swing_angle/polar/vector/x,/uav/cv/swing_angle/polar/vector/y,/uav/cv/swing_angle/polar/vector/z,/uav/truth/swing_angle/cartesian/header/stamp/nanosec,/uav/truth/swing_angle/cartesian/header/stamp/sec,/uav/truth/swing_angle/cartesian/vector/x,/uav/truth/swing_angle/cartesian/vector/y,/uav/truth/swing_angle/cartesian/vector/z,/uav/truth/swing_angle/polar/header/stamp/nanosec,/uav/truth/swing_angle/polar/header/stamp/sec,/uav/truth/swing_angle/polar/vector/x,/uav/truth/swing_angle/polar/vector/y,/uav/truth/swing_angle/polar/vector/z
1775716551.974220,,,,,,,,,,,725000000.000000000,423.000000000,-3.856679238,-24.817809773,0.999845253,,,,,
1775716551.974269,,,,,,,,,,,,,,,,725000000.000000000,423.000000000,25.048094325,-98.294005074,0.999845253
1775716551.977775,,,,,,,,,,,730000000.000000000,423.000000000,-3.882540812,-24.322364422,0.999839348,,,,,
1775716551.977823,,,,,,,,,,,,,,,,730000000.000000000,423.000000000,24.562965200,-98.539311584,0.999839348
1775716551.982358,,,,,,,,,,,735000000.000000000,423.000000000,-3.906455887,-23.812416520,0.999832126,,,,,
1775716551.982387,,,,,,,,,,,,,,,,735000000.000000000,423.000000000,24.063787567,-98.795909773,0.999832126
1775716551.989757,,,,,,,,,,,740000000.000000000,423.000000000,-3.928488806,-23.288551281,0.999823572,,,,,
1775716551.989836,,,,,,,,,,,,,,,,740000000.000000000,423.000000000,23.551179417,-99.064800347,0.999823572
1775716551.992863,,,,,,,,,,,745000000.000000000,423.000000000,-3.948634991,-22.751625466,0.999813687,,,,,
1775716551.992895,,,,,,,,,,,,,,,,745000000.000000000,423.000000000,23.026019672,-99.346806303,0.999813687
1775716551.993914,993780652.000000000,1775716551.000000000,-3.391738159,-23.072846583,1.000000000,,,,,,,,,,,,,,,
1775716551.993952,,,,,,993780652.000000000,1775716551.000000000,23.271535847,-97.920739902,1.000000000,,,,,,,,,,
1775716551.997216,,,,,,,,,,,750000000.000000000,423.000000000,-3.966928740,-22.201532042,0.999802503,,,,,
1775716551.997241,,,,,,,,,,,,,,,,750000000.000000000,423.000000000,22.488248213,-99.643377856,0.999802503
1775716552.002636,,,,,,,,,,,755000000.000000000,423.000000000,-3.983306914,-21.638328511,0.999790035,,,,,
1775716552.002662,,,,,,,,,,,,,,,,755000000.000000000,423.000000000,21.937958363,-99.955838308,0.999790035
1775716552.007714,,,,,,,,,,,760000000.000000000,423.000000000,-3.997684421,-21.062808076,0.999776303,,,,,
1775716552.007765,,,,,,,,,,,,,,,,760000000.000000000,423.000000000,21.375965579,-100.285254330,0.999776303
1775716552.012276,,,,,,,,,,,765000000.000000000,423.000000000,-4.010088407,-20.475958252,0.999761350,,,,,
1775716552.012310,,,,,,,,,,,,,,,,765000000.000000000,423.000000000,20.803295373,-100.633000415,0.999761350
1775716552.018672,,,,,,,,,,,770000000.000000000,423.000000000,-4.020643528,-19.877721402,0.999745249,,,,,
1775716552.018709,,,,,,,,,,,,,,,,770000000.000000000,423.000000000,20.219972398,-101.001475825,0.999745249
1775716552.021322,21056777.000000000,1775716552.000000000,-3.391738159,-19.197564261,1.000000000,,,,,,,,,,,,,,,
1775716552.021420,,,,,,21056777.000000000,1775716552.000000000,19.453072843,-99.659893078,1.000000000,,,,,,,,,,
1775716552.024062,,,,,,,,,,,775000000.000000000,423.000000000,-4.029414684,-19.268188016,0.999728042,,,,,
1775716552.024111,,,,,,,,,,,,,,,,775000000.000000000,423.000000000,19.626168733,-101.393176909,0.999728042
1775716552.027274,,,,,,,,,,,780000000.000000000,423.000000000,-4.036524079,-18.648225927,0.999709776,,,,,
1775716552.027329,,,,,,,,,,,,,,,,780000000.000000000,423.000000000,19.022837707,-101.810627621,0.999709776
1775716552.032637,,,,,,,,,,,785000000.000000000,423.000000000,-4.042065672,-18.019058800,0.999690518,,,,,
1775716552.032676,,,,,,,,,,,,,,,,785000000.000000000,423.000000000,18.411285981,-102.256355891,0.999690518
1775716552.037996,,,,,,,,,,,790000000.000000000,423.000000000,-4.046088288,-17.380859397,0.999670381,,,,,
1775716552.038063,,,,,,,,,,,,,,,,790000000.000000000,423.000000000,17.791801990,-102.733858580,0.999670381
1775716552.042718,,,,,,,,,,,795000000.000000000,423.000000000,-4.048588354,-16.733952657,0.999649432,,,,,
1775716552.042756,,,,,,,,,,,,,,,,795000000.000000000,423.000000000,17.164830527,-103.246913487,0.999649432
1775716552.047570,,,,,,,,,,,800000000.000000000,423.000000000,-4.049491302,-16.079292927,0.999627735,,,,,
1775716552.047591,,,,,,,,,,,,,,,,800000000.000000000,423.000000000,16.531429886,-103.799143771,0.999627735
1775716552.053840,,,,,,,,,,,805000000.000000000,423.000000000,-4.048789575,-15.418023080,0.999605376,,,,,
1775716552.053884,,,,,,,,,,,,,,,,805000000.000000000,423.000000000,15.892871420,-104.394772507,0.999605376
1775716552.058580,,,,,,,,,,,810000000.000000000,423.000000000,-4.046637558,-14.750165768,0.999582493,,,,,
1775716552.058646,,,,,,,,,,,,,,,,810000000.000000000,423.000000000,15.249408949,-105.040368455,0.999582493
1775716552.062776,,,,,,,,,,,815000000.000000000,423.000000000,-4.043236493,-14.076081564,0.999559160,,,,,
1775716552.062826,,,,,,,,,,,,,,,,815000000.000000000,423.000000000,14.601678486,-105.743539640,0.999559160
1775716552.063057,62990613.000000000,1775716552.000000000,-3.603179692,-14.734777699,1.000000000,,,,,,,,,,,,,,,
1775716552.063074,,,,,,62990613.000000000,1775716552.000000000,15.132407849,-103.465208095,1.000000000,,,,,,,,,,
1775716552.067879,,,,,,,,,,,820000000.000000000,423.000000000,-4.038657108,-13.396904128,0.999535437,,,,,
1775716552.067918,,,,,,,,,,,,,,,,820000000.000000000,423.000000000,13.951074185,-106.511884596,0.999535437
1775716552.074114,,,,,,,,,,,825000000.000000000,423.000000000,-4.032886141,-12.714066554,0.999511410,,,,,
1775716552.074192,,,,,,,,,,,,,,,,825000000.000000000,423.000000000,13.299298999,-107.353579171,0.999511410
1775716552.078061,,,,,,,,,,,830000000.000000000,423.000000000,-4.025876318,-12.028294974,0.999487213,,,,,
1775716552.078109,,,,,,,,,,,,,,,,830000000.000000000,423.000000000,12.647425208,-108.279050250,0.999487213
1775716552.082526,,,,,,,,,,,835000000.000000000,423.000000000,-4.017638810,-11.340440485,0.999462940,,,,,
1775716552.082553,,,,,,,,,,,,,,,,835000000.000000000,423.000000000,11.996732492,-109.300821793,0.999462940
1775716552.088208,,,,,,,,,,,840000000.000000000,423.000000000,-4.008262368,-10.651744772,0.999438666,,,,,
1775716552.088275,,,,,,,,,,,,,,,,840000000.000000000,423.000000000,11.348982202,-110.433570259,0.999438666
1775716552.092497,,,,,,,,,,,845000000.000000000,423.000000000,-3.997890939,-9.963691346,0.999414483,,,,,
1775716552.092529,,,,,,,,,,,,,,,,845000000.000000000,423.000000000,10.706288735,-111.694590402,0.999414483
1775716552.097320,,,,,,,,,,,850000000.000000000,423.000000000,-3.986649619,-9.277505731,0.999390508,,,,,
1775716552.097342,,,,,,,,,,,,,,,,850000000.000000000,423.000000000,10.070656447,-113.104935758,0.999390508
1775716552.102887,,,,,,,,,,,855000000.000000000,423.000000000,-3.974615652,-8.594537938,0.999366843,,,,,
1775716552.102920,,,,,,,,,,,,,,,,855000000.000000000,423.000000000,9.444357952,-114.689292005,0.999366843
1775716552.103730,103640179.000000000,1775716552.000000000,-3.603179692,-9.669786609,1.000000000,,,,,,,,,,,,,,,
1775716552.103747,,,,,,103640179.000000000,1775716552.000000000,10.295740064,-110.282559089,1.000000000,,,,,,,,,,
1775716552.108296,,,,,,,,,,,860000000.000000000,423.000000000,-3.961804413,-7.916226230,0.999343581,,,,,
1775716552.108359,,,,,,,,,,,,,,,,860000000.000000000,423.000000000,8.829926254,-116.476599177,0.999343581
1775716552.112024,,,,,,,,,,,865000000.000000000,423.000000000,-3.948171706,-7.243938420,0.999320830,,,,,
1775716552.112037,,,,,,,,,,,,,,,,865000000.000000000,423.000000000,8.230053257,-118.501236919,0.999320830
1775716552.117219,,,,,,,,,,,870000000.000000000,423.000000000,-3.933693912,-6.578537962,0.999298731,,,,,
1775716552.117250,,,,,,,,,,,,,,,,870000000.000000000,423.000000000,7.647316735,-120.806182607,0.999298731
1775716552.123422,,,,,,,,,,,875000000.000000000,423.000000000,-3.918431939,-5.920953601,0.999277388,,,,,
1775716552.123478,,,,,,,,,,,,,,,,875000000.000000000,423.000000000,7.084827850,-123.443294793,0.999277388
1775716552.128371,,,,,,,,,,,880000000.000000000,423.000000000,-3.902493865,-5.272076120,0.999256895,,,,,
1775716552.128410,,,,,,,,,,,,,,,,880000000.000000000,423.000000000,6.546250927,-126.474510724,0.999256895
1775716552.133690,,,,,,,,,,,885000000.000000000,423.000000000,-3.885974896,-4.632792044,0.999237347,,,,,
1775716552.133757,,,,,,,,,,,,,,,,885000000.000000000,423.000000000,6.035944859,-129.971573441,0.999237347
1775716552.138310,,,,,,,,,,,890000000.000000000,423.000000000,-3.868870516,-4.003604592,0.999218862,,,,,
1775716552.138392,,,,,,,,,,,,,,,,890000000.000000000,423.000000000,5.558777322,-134.016412316,0.999218862
1775716552.142579,,,,,,,,,,,895000000.000000000,423.000000000,-3.851176482,-3.385188778,0.999201514,,,,,
1775716552.142656,,,,,,,,,,,,,,,,895000000.000000000,423.000000000,5.120771247,-138.694235892,0.999201514
1775716552.142759,142660799.000000000,1775716552.000000000,-3.814522999,-4.447906875,1.000000000,,,,,,,,,,,,,,,
1775716552.142792,,,,,,142660799.000000000,1775716552.000000000,5.849626495,-130.601294645,1.000000000,,,,,,,,,,
1775716552.147447,,,,,,,,,,,900000000.000000000,423.000000000,-3.832902324,-2.778072427,0.999185370,,,,,
1775716552.147497,,,,,,,,,,,,,,,,900000000.000000000,423.000000000,4.728945694,-144.084855071,0.999185370
1775716552.152777,,,,,,,,,,,905000000.000000000,423.000000000,-3.814102166,-2.182662526,0.999170492,,,,,
1775716552.152837,,,,,,,,,,,,,,,,905000000.000000000,423.000000000,4.391278016,-150.243734165,0.999170492
1775716552.157682,,,,,,,,,,,910000000.000000000,423.000000000,-3.794829510,-1.598934153,0.999156967,,,,,
1775716552.157701,,,,,,,,,,,,,,,,910000000.000000000,423.000000000,4.116115319,-157.176771965,0.999156967
1775716552.162361,,,,,,,,,,,915000000.000000000,423.000000000,-3.775134205,-1.027139309,0.999144809,,,,,
1775716552.162399,,,,,,,,,,,,,,,,915000000.000000000,423.000000000,3.911593068,-164.798853313,0.999144809
1775716552.167282,,,,,,,,,,,920000000.000000000,423.000000000,-3.754990047,-0.467541472,0.999134022,,,,,
1775716552.167312,,,,,,,,,,,,,,,,920000000.000000000,423.000000000,3.783820301,-172.912418405,0.999134022
1775716552.174372,,,,,,,,,,,925000000.000000000,423.000000000,-3.734370658,0.079665681,0.999124614,,,,,
1775716552.174512,,,,,,,,,,,,,,,,925000000.000000000,423.000000000,3.735215517,178.779618823,0.999124614
1775716552.178089,,,,,,,,,,,930000000.000000000,423.000000000,-3.713303984,0.614690483,0.999116624,,,,,
1775716552.178113,,,,,,,,,,,,,,,,930000000.000000000,423.000000000,3.763556725,170.613221296,0.999116624
1775716552.182895,,,,,,,,,,,935000000.000000000,423.000000000,-3.691897192,1.137458700,0.999110022,,,,,
1775716552.182932,,,,,,,,,,,,,,,,935000000.000000000,423.000000000,3.862223504,162.896350732,0.999110022
1775716552.188225,188001633.000000000,1775716552.000000000,-3.391738159,0.000000000,1.000000000,,,,,,,,,,,,,,,
1775716552.188267,,,,,,188001633.000000000,1775716552.000000000,3.391738159,-180.000000000,1.000000000,,,,,,,,,,
1775716552.189195,,,,,,,,,,,940000000.000000000,423.000000000,-3.670195237,1.647961061,0.999104770,,,,,
1775716552.189230,,,,,,,,,,,,,,,,940000000.000000000,423.000000000,4.021353739,155.842754189,0.999104770
1775716552.193740,,,,,,,,,,,945000000.000000000,423.000000000,-3.648158778,2.146217275,0.999100826,,,,,
1775716552.193787,,,,,,,,,,,,,,,,945000000.000000000,423.000000000,4.229713609,149.553788341,0.999100826
1775716552.197222,,,,,,,,,,,950000000.000000000,423.000000000,-3.625644702,2.632587828,0.999098185,,,,,
1775716552.197235,,,,,,,,,,,,,,,,950000000.000000000,423.000000000,4.476485769,144.033736864,0.999098185
1775716552.202456,,,,,,,,,,,955000000.000000000,423.000000000,-3.602575830,3.107139985,0.999096767,,,,,
1775716552.202479,,,,,,,,,,,,,,,,955000000.000000000,423.000000000,4.752067912,139.232555123,0.999096767
1775716552.207749,,,,,,,,,,,960000000.000000000,423.000000000,-3.578952075,3.570055155,0.999096508,,,,,
1775716552.207785,,,,,,,,,,,,,,,,960000000.000000000,423.000000000,5.048577412,135.071489758,0.999096508
1775716552.212647,,,,,,,,,,,965000000.000000000,423.000000000,-3.554783720,4.021562514,0.999097338,,,,,
1775716552.212685,,,,,,,,,,,,,,,,965000000.000000000,423.000000000,5.359738506,131.464232362,0.999097338
1775716552.219137,,,,,,,,,,,970000000.000000000,423.000000000,-3.530088815,4.462186363,0.999099224,,,,,
1775716552.219172,,,,,,,,,,,,,,,,970000000.000000000,423.000000000,5.680874532,128.326806000,0.999099224
1775716552.224231,,,,,,,,,,,975000000.000000000,423.000000000,-3.504936562,4.892188071,0.999102062,,,,,
1775716552.224314,,,,,,,,,,,,,,,,975000000.000000000,423.000000000,6.008269508,125.586989350,0.999102062
1775716552.224366,224150339.000000000,1775716552.000000000,-2.968583213,3.603179692,1.000000000,,,,,,,,,,,,,,,
1775716552.224391,,,,,,224150339.000000000,1775716552.000000000,4.663589793,129.472459848,1.000000000,,,,,,,,,,
1775716552.227465,,,,,,,,,,,980000000.000000000,423.000000000,-3.479360703,5.311774124,0.999105745,,,,,
1775716552.227515,,,,,,,,,,,,,,,,980000000.000000000,423.000000000,6.339004948,123.182854576,0.999105745
1775716552.232099,,,,,,,,,,,985000000.000000000,423.000000000,-3.453330445,5.721189607,0.999110184,,,,,
1775716552.232110,,,,,,,,,,,,,,,,985000000.000000000,423.000000000,6.670831765,121.061633527,0.999110184
1775716552.238057,,,,,,,,,,,990000000.000000000,423.000000000,-3.426738418,6.121086406,0.999115338,,,,,
1775716552.238126,,,,,,,,,,,,,,,,990000000.000000000,423.000000000,7.002344345,119.177229124,0.999115338
1775716552.242659,,,,,,,,,,,995000000.000000000,423.000000000,-3.399526155,6.511889546,0.999121098,,,,,
1775716552.242699,,,,,,,,,,,,,,,,995000000.000000000,423.000000000,7.332394721,117.492928518,0.999121098
1775716552.247189,,,,,,,,,,,0.000000000,424.000000000,-3.371693431,6.893998013,0.999127358,,,,,
1775716552.247218,,,,,,,,,,,,,,,,0.000000000,424.000000000,7.660154459,115.978897680,0.999127358
1775716552.253056,,,,,,,,,,,5000000.000000000,424.000000000,-3.343355584,7.267712490,0.999134016,,,,,
1775716552.253102,,,,,,,,,,,,,,,,5000000.000000000,424.000000000,7.984992881,114.611508560,0.999134016
1775716552.258996,,,,,,,,,,,10000000.000000000,424.000000000,-3.314626207,7.633581836,0.999141029,,,,,
1775716552.259080,,,,,,,,,,,,,,,,10000000.000000000,424.000000000,8.306679347,113.370443334,0.999141029
1775716552.263368,,,,,,,,,,,15000000.000000000,424.000000000,-3.285547390,7.991888355,0.999148292,,,,,
1775716552.263453,,,,,,,,,,,,,,,,15000000.000000000,424.000000000,8.624854918,112.239107993,0.999148292
1775716552.264535,264368963.000000000,1775716552.000000000,-2.968583213,6.550489524,1.000000000,,,,,,,,,,,,,,,
1775716552.264589,,,,,,264368963.000000000,1775716552.000000000,7.181154511,114.304549266,1.000000000,,,,,,,,,,
1775716552.268628,,,,,,,,,,,20000000.000000000,424.000000000,-3.255901207,8.342904810,0.999155706,,,,,
1775716552.268696,,,,,,,,,,,,,,,,20000000.000000000,424.000000000,8.939170735,111.202043151,0.999155706
1775716552.272989,,,,,,,,,,,25000000.000000000,424.000000000,-3.225391094,8.686943877,0.999163207,,,,,
1775716552.273051,,,,,,,,,,,,,,,,25000000.000000000,424.000000000,9.249393643,110.245594468,0.999163207
1775716552.277472,,,,,,,,,,,30000000.000000000,424.000000000,-3.193828265,9.024693761,0.999170778,,,,,
1775716552.277523,,,,,,,,,,,,,,,,30000000.000000000,424.000000000,9.555768905,109.357967347,0.999170778
1775716552.282348,,,,,,,,,,,35000000.000000000,424.000000000,-3.161273101,9.356614629,0.999178342,,,,,
1775716552.282370,,,,,,,,,,,,,,,,35000000.000000000,424.000000000,9.858478112,108.530971551,0.999178342
1775716552.288185,,,,,,,,,,,40000000.000000000,424.000000000,-3.127981030,9.683045934,0.999185820,,,,,
1775716552.288249,,,,,,,,,,,,,,,,40000000.000000000,424.000000000,10.157689992,107.758901453,0.999185820
1775716552.292327,,,,,,,,,,,45000000.000000000,424.000000000,-3.094230122,10.004146651,0.999193145,,,,,
1775716552.292357,,,,,,,,,,,,,,,,45000000.000000000,424.000000000,10.453432085,107.037325288,0.999193145
1775716552.297139,,,,,,,,,,,50000000.000000000,424.000000000,-3.060082105,10.320354779,0.999200312,,,,,
1775716552.297166,,,,,,,,,,,,,,,,50000000.000000000,424.000000000,10.745956259,106.360915040,0.999200312
1775716552.302865,,,,,,,,,,,55000000.000000000,424.000000000,-3.025367289,10.632006470,0.999207275,,,,,
1775716552.302896,,,,,,,,,,,,,,,,55000000.000000000,424.000000000,11.035382341,105.724082768,0.999207275
1775716552.305632,305408902.000000000,1775716552.000000000,-2.756881233,9.256799659,1.000000000,,,,,,,,,,,,,,,
1775716552.305710,,,,,,305408902.000000000,1775716552.000000000,9.645093088,106.460014812,1.000000000,,,,,,,,,,
1775716552.308341,,,,,,,,,,,60000000.000000000,424.000000000,-2.989810962,10.939441694,0.999213982,,,,,
1775716552.308378,,,,,,,,,,,,,,,,60000000.000000000,424.000000000,11.321837641,105.121419886,0.999213982
1775716552.312867,,,,,,,,,,,65000000.000000000,424.000000000,-2.953283110,11.242936662,0.999220394,,,,,
1775716552.312893,,,,,,,,,,,,,,,,65000000.000000000,424.000000000,11.605452723,104.548920267,0.999220394
1775716552.319342,,,,,,,,,,,70000000.000000000,424.000000000,-2.915850183,11.543080940,0.999226530,,,,,
1775716552.319382,,,,,,,,,,,,,,,,70000000.000000000,424.000000000,11.886726702,104.003578813,0.999226530
1775716552.323245,,,,,,,,,,,75000000.000000000,424.000000000,-2.877757070,11.840234768,0.999232352,,,,,
1775716552.323291,,,,,,,,,,,,,,,,75000000.000000000,424.000000000,12.165988750,103.483867558,0.999232352
1775716552.327210,,,,,,,,,,,80000000.000000000,424.000000000,-2.839223868,12.134462577,0.999237796,,,,,
1775716552.327244,,,,,,,,,,,,,,,,80000000.000000000,424.000000000,12.443277787,102.988687949,0.999237796
1775716552.332480,,,,,,,,,,,85000000.000000000,424.000000000,-2.800265531,12.425679649,0.999242834,,,,,
1775716552.332534,,,,,,,,,,,,,,,,85000000.000000000,424.000000000,12.718445606,102.516331923,0.999242834
1775716552.338344,,,,,,,,,,,90000000.000000000,424.000000000,-2.760660637,12.714164636,0.999247503,,,,,
1775716552.338418,,,,,,,,,,,,,,,,90000000.000000000,424.000000000,12.991657261,102.063893215,0.999247503
1775716552.342826,,,,,,,,,,,95000000.000000000,424.000000000,-2.720188262,13.000233492,0.999251814,,,,,
1775716552.342860,,,,,,,,,,,,,,,,95000000.000000000,424.000000000,13.263128859,101.628723264,0.999251814
1775716552.343223,343122179.000000000,1775716552.000000000,-2.333256942,11.311230999,1.000000000,,,,,,,,,,,,,,,
1775716552.343243,,,,,,343122179.000000000,1775716552.000000000,11.537357987,101.513831184,1.000000000,,,,,,,,,,
1775716552.347106,,,,,,,,,,,100000000.000000000,424.000000000,-2.678725791,13.284198833,0.999255748,,,,,
1775716552.347129,,,,,,,,,,,,,,,,100000000.000000000,424.000000000,13.533104399,101.208839830,0.999255748
1775716552.352374,,,,,,,,,,,105000000.000000000,424.000000000,-2.636326187,13.566201135,0.999259289,,,,,
1775716552.352401,,,,,,,,,,,,,,,,105000000.000000000,424.000000000,13.801699115,100.803303841,0.999259289
1775716552.357836,,,,,,,,,,,110000000.000000000,424.000000000,-2.593151750,13.846522397,0.999262464,,,,,
1775716552.357872,,,,,,,,,,,,,,,,110000000.000000000,424.000000000,14.069188039,100.411593902,0.999262464
1775716552.362633,,,,,,,,,,,115000000.000000000,424.000000000,-2.549310816,14.125304944,0.999265273,,,,,
1775716552.362657,,,,,,,,,,,,,,,,115000000.000000000,424.000000000,14.335699855,100.033157831,0.999265273
1775716552.367991,,,,,,,,,,,120000000.000000000,424.000000000,-2.504835112,14.402503141,0.999267685,,,,,
1775716552.368024,,,,,,,,,,,,,,,,120000000.000000000,424.000000000,14.601166564,99.667342285,0.999267685
1775716552.373194,,,,,,,,,,,125000000.000000000,424.000000000,-2.459665640,14.678007763,0.999269703,,,,,
1775716552.373274,,,,,,,,,,,,,,,,125000000.000000000,424.000000000,14.865445060,99.313244354,0.999269703
1775716552.377968,,,,,,,,,,,130000000.000000000,424.000000000,-2.413674512,14.952106664,0.999271389,,,,,
1775716552.378009,,,,,,,,,,,,,,,,130000000.000000000,424.000000000,15.128776823,98.969521341,0.999271389
1775716552.384331,,,,,,,,,,,135000000.000000000,424.000000000,-2.366893499,15.225154971,0.999272770,,,,,
1775716552.384387,,,,,,,,,,,,,,,,135000000.000000000,424.000000000,15.391497960,98.635486541,0.999272770
1775716552.385396,385298052.000000000,1775716552.000000000,-2.121346141,13.537392876,1.000000000,,,,,,,,,,,,,,,
1775716552.385423,,,,,,385298052.000000000,1775716552.000000000,13.690701028,98.746162263,1.000000000,,,,,,,,,,
1775716552.388625,,,,,,,,,,,140000000.000000000,424.000000000,-2.319421165,15.497314003,0.999273825,,,,,
1775716552.388690,,,,,,,,,,,,,,,,140000000.000000000,424.000000000,15.653764091,98.310875702,0.999273825
1775716552.392433,,,,,,,,,,,145000000.000000000,424.000000000,-2.271321064,15.768475397,0.999274539,,,,,
1775716552.392470,,,,,,,,,,,,,,,,145000000.000000000,424.000000000,15.915459304,97.995476767,0.999274539
1775716552.397167,,,,,,,,,,,150000000.000000000,424.000000000,-2.222522413,16.038677557,0.999274944,,,,,
1775716552.397188,,,,,,,,,,,,,,,,150000000.000000000,424.000000000,16.176595825,97.688551545,0.999274944
1775716552.402917,,,,,,,,,,,155000000.000000000,424.000000000,-2.172984233,16.308000971,0.999275068,,,,,
1775716552.402944,,,,,,,,,,,,,,,,155000000.000000000,424.000000000,16.437233808,97.389493812,0.999275068
1775716552.408985,,,,,,,,,,,160000000.000000000,424.000000000,-2.122723418,16.576388061,0.999274898,,,,,
1775716552.409055,,,,,,,,,,,,,,,,160000000.000000000,424.000000000,16.697305168,97.097996108,0.999274898
1775716552.412460,,,,,,,,,,,165000000.000000000,424.000000000,-2.071786520,16.843685990,0.999274437,,,,,
1775716552.412514,,,,,,,,,,,,,,,,165000000.000000000,424.000000000,16.956650945,96.813904345,0.999274437
1775716552.418502,,,,,,,,,,,170000000.000000000,424.000000000,-2.020223311,17.110050342,0.999273740,,,,,
1775716552.418616,,,,,,,,,,,,,,,,170000000.000000000,424.000000000,17.215418134,96.536951267,0.999273740
1775716552.423653,,,,,,,,,,,175000000.000000000,424.000000000,-1.968058938,17.375671568,0.999272837,,,,,
1775716552.423754,,,,,,,,,,,,,,,,175000000.000000000,424.000000000,17.473786164,96.266805381,0.999272837
1775716552.426924,426725400.000000000,1775716552.000000000,-1.697356084,15.525852278,1.000000000,,,,,,,,,,,,,,,
1775716552.426977,,,,,,426725400.000000000,1775716552.000000000,15.609644582,96.088528154,1.000000000,,,,,,,,,,
1775716552.428165,,,,,,,,,,,180000000.000000000,424.000000000,-1.915196104,17.640514555,0.999271707,,,,,
1775716552.428201,,,,,,,,,,,,,,,,180000000.000000000,424.000000000,17.731699455,96.002866990,0.999271707
1775716552.432395,,,,,,,,,,,185000000.000000000,424.000000000,-1.861571279,17.904315123,0.999270336,,,,,
1775716552.432424,,,,,,,,,,,,,,,,185000000.000000000,424.000000000,17.988880071,95.744751786,0.999270336
1775716552.438174,,,,,,,,,,,190000000.000000000,424.000000000,-1.807157360,18.166967371,0.999268758,,,,,
1775716552.438224,,,,,,,,,,,,,,,,190000000.000000000,424.000000000,18.245211749,95.492142829,0.999268758
1775716552.442788,,,,,,,,,,,195000000.000000000,424.000000000,-1.751990575,18.428491438,0.999267008,,,,,
1775716552.442856,,,,,,,,,,,,,,,,195000000.000000000,424.000000000,18.500709617,95.244886881,0.999267008
1775716552.447499,,,,,,,,,,,200000000.000000000,424.000000000,-1.696177650,18.688876510,0.999265094,,,,,
1775716552.447524,,,,,,,,,,,,,,,,200000000.000000000,424.000000000,18.755363443,95.003057127,0.999265094
1775716552.453507,,,,,,,,,,,205000000.000000000,424.000000000,-1.639796270,18.948016031,0.999263017,,,,,
1775716552.453549,,,,,,,,,,,,,,,,205000000.000000000,424.000000000,19.009064259,94.766664486,0.999263017
1775716552.459748,,,,,,,,,,,210000000.000000000,424.000000000,-1.582814837,19.205935045,0.999260809,,,,,
1775716552.459808,,,,,,,,,,,,,,,,210000000.000000000,424.000000000,19.261825628,94.535369314,0.999260809
1775716552.462871,,,,,,,,,,,215000000.000000000,424.000000000,-1.525120718,19.462669305,0.999258495,,,,,
1775716552.462907,,,,,,,,,,,,,,,,215000000.000000000,424.000000000,19.513667386,94.308621708,0.999258495
1775716552.464843,464617702.000000000,1775716552.000000000,-1.273179998,17.283413699,1.000000000,,,,,,,,,,,,,,,
1775716552.464901,,,,,,464617702.000000000,1775716552.000000000,17.324815581,94.085616780,1.000000000,,,,,,,,,,
1775716552.468732,,,,,,,,,,,220000000.000000000,424.000000000,-1.466669827,19.718081058,0.999256058,,,,,
1775716552.468763,,,,,,,,,,,,,,,,220000000.000000000,424.000000000,19.764442874,94.086132951,0.999256058
1775716552.473552,,,,,,,,,,,225000000.000000000,424.000000000,-1.407539762,19.971921038,0.999253495,,,,,
1775716552.473624,,,,,,,,,,,,,,,,225000000.000000000,424.000000000,20.013902296,93.867980982,0.999253495
1775716552.478278,,,,,,,,,,,230000000.000000000,424.000000000,-1.347839371,20.224120130,0.999250841,,,,,
1775716552.478326,,,,,,,,,,,,,,,,230000000.000000000,424.000000000,20.261976262,93.654278678,0.999250841
1775716552.482144,,,,,,,,,,,235000000.000000000,424.000000000,-1.287701131,20.474703900,0.999248131,,,,,
1775716552.482169,,,,,,,,,,,,,,,,235000000.000000000,424.000000000,20.508689915,93.445176758,0.999248131
1775716552.488112,,,,,,,,,,,240000000.000000000,424.000000000,-1.227135977,20.723610762,0.999245361,,,,,
1775716552.488165,,,,,,,,,,,,,,,,240000000.000000000,424.000000000,20.753974093,93.240514649,0.999245361
1775716552.492619,,,,,,,,,,,245000000.000000000,424.000000000,-1.166023452,20.970636268,0.999242523,,,,,
1775716552.492677,,,,,,,,,,,,,,,,245000000.000000000,424.000000000,20.997611180,93.039818884,0.999242523
1775716552.497143,,,,,,,,,,,250000000.000000000,424.000000000,-1.104174620,21.215709171,0.999239647,,,,,
1775716552.497164,,,,,,,,,,,,,,,,250000000.000000000,424.000000000,21.239515359,92.842436751,0.999239647
1775716552.502712,,,,,,,,,,,255000000.000000000,424.000000000,-1.041480152,21.458806492,0.999236763,,,,,
1775716552.502743,,,,,,,,,,,,,,,,255000000.000000000,424.000000000,21.479654821,92.647941130,0.999236763
1775716552.504843,504647141.000000000,1775716552.000000000,-0.848864285,19.197564261,1.000000000,,,,,,,,,,,,,,,
1775716552.504905,,,,,,504647141.000000000,1775716552.000000000,19.213664647,92.436648247,1.000000000,,,,,,,,,,
1775716552.507891,,,,,,,,,,,260000000.000000000,424.000000000,-0.977966220,21.699800812,0.999233858,,,,,
1775716552.507936,,,,,,,,,,,,,,,,260000000.000000000,424.000000000,21.717900015,92.456278285,0.999233858
1775716552.512157,,,,,,,,,,,265000000.000000000,424.000000000,-0.913786091,21.938487730,0.999230933,,,,,
1775716552.512177,,,,,,,,,,,,,,,,265000000.000000000,424.000000000,21.954048628,92.267716965,0.999230933
1775716552.518961,,,,,,,,,,,270000000.000000000,424.000000000,-0.849080125,22.174808824,0.999228019,,,,,
1775716552.519007,,,,,,,,,,,,,,,,270000000.000000000,424.000000000,22.188042112,92.082460103,0.999228019
1775716552.523037,,,,,,,,,,,275000000.000000000,424.000000000,-0.783856150,22.408744151,0.999225144,,,,,
1775716552.523083,,,,,,,,,,,,,,,,275000000.000000000,424.000000000,22.419855270,91.900375507,0.999225144
1775716552.527195,,,,,,,,,,,280000000.000000000,424.000000000,-0.718043601,22.640168600,0.999222297,,,,,
1775716552.527211,,,,,,,,,,,,,,,,280000000.000000000,424.000000000,22.649356004,91.721158248,0.999222297
1775716552.532375,,,,,,,,,,,285000000.000000000,424.000000000,-0.651553207,22.868870372,0.999219474,,,,,
1775716552.532429,,,,,,,,,,,,,,,,285000000.000000000,424.000000000,22.876326147,91.544475767,0.999219474
1775716552.538339,,,,,,,,,,,290000000.000000000,424.000000000,-0.584369098,23.094754109,0.999216704,,,,,
1775716552.538373,,,,,,,,,,,,,,,,290000000.000000000,424.000000000,23.100666541,91.370168109,0.999216704
1775716552.542228,542010852.000000000,1775716552.000000000,-0.424455434,20.883175299,1.000000000,,,,,,,,,,,,,,,
1775716552.542290,,,,,,542010852.000000000,1775716552.000000000,20.886772235,91.112399616,1.000000000,,,,,,,,,,
1775716552.543112,,,,,,,,,,,295000000.000000000,424.000000000,-0.516595417,23.317796145,0.999214016,,,,,
1775716552.543140,,,,,,,,,,,,,,,,295000000.000000000,424.000000000,23.322352181,91.198354026,0.999214016
1775716552.547130,,,,,,,,,,,300000000.000000000,424.000000000,-0.448322207,23.537875602,0.999211402,,,,,
1775716552.547147,,,,,,,,,,,,,,,,300000000.000000000,424.000000000,23.541259822,91.029119713,0.999211402
1775716552.552256,,,,,,,,,,,305000000.000000000,424.000000000,-0.379617640,23.754781587,0.999208858,,,,,
1775716552.552299,,,,,,,,,,,,,,,,305000000.000000000,424.000000000,23.757175260,90.862498906,0.999208858
1775716552.557836,,,,,,,,,,,310000000.000000000,424.000000000,-0.310486862,23.968403854,0.999206411,,,,,
1775716552.557870,,,,,,,,,,,,,,,,310000000.000000000,424.000000000,23.969983850,90.698373412,0.999206411
1775716552.562754,,,,,,,,,,,315000000.000000000,424.000000000,-0.240874879,24.178706931,0.999204095,,,,,
1775716552.562776,,,,,,,,,,,,,,,,315000000.000000000,424.000000000,24.179645472,90.536491559,0.999204095
1775716552.568301,,,,,,,,,,,320000000.000000000,424.000000000,-0.170710834,24.385558770,0.999201900,,,,,
1775716552.568332,,,,,,,,,,,,,,,,320000000.000000000,424.000000000,24.386024141,90.376577907,0.999201900
1775716552.574109,,,,,,,,,,,325000000.000000000,424.000000000,-0.099978728,24.588766906,0.999199826,,,,,
1775716552.574171,,,,,,,,,,,,,,,,325000000.000000000,424.000000000,24.588924525,90.218484806,0.999199826
1775716552.577393,,,,,,,,,,,330000000.000000000,424.000000000,-0.028732682,24.788238108,0.999197902,,,,,
1775716552.577415,,,,,,,,,,,,,,,,330000000.000000000,424.000000000,24.788250966,90.062216741,0.999197902
1775716552.582361,,,,,,,,,,,335000000.000000000,424.000000000,0.042941776,24.983955559,0.999196159,,,,,
1775716552.582381,,,,,,,,,,,,,,,,335000000.000000000,424.000000000,24.983983933,89.907843760,0.999196159
1775716552.586920,586754162.000000000,1775716552.000000000,0.000000000,22.531787729,1.000000000,,,,,,,,,,,,,,,
1775716552.586961,,,,,,586754162.000000000,1775716552.000000000,22.531787729,90.000000000,1.000000000,,,,,,,,,,
1775716552.588276,,,,,,,,,,,340000000.000000000,424.000000000,0.114962394,25.175756436,0.999194585,,,,,
1775716552.588328,,,,,,,,,,,,,,,,340000000.000000000,424.000000000,25.175957401,89.755425068,0.999194585
1775716552.592279,,,,,,,,,,,345000000.000000000,424.000000000,0.187296221,25.363400187,0.999193178,,,,,
1775716552.592308,,,,,,,,,,,,,,,,345000000.000000000,424.000000000,25.363927461,89.604908771,0.999193178
1775716552.597011,,,,,,,,,,,350000000.000000000,424.000000000,0.259988880,25.546792322,0.999191971,,,,,
1775716552.597031,,,,,,,,,,,,,,,,350000000.000000000,424.000000000,25.547796890,89.456078240,0.999191971
1775716552.602787,,,,,,,,,,,355000000.000000000,424.000000000,0.333107396,25.725904471,0.999190997,,,,,
1775716552.602821,,,,,,,,,,,,,,,,355000000.000000000,424.000000000,25.727535456,89.308679792,0.999190997
1775716552.608314,,,,,,,,,,,360000000.000000000,424.000000000,0.406668483,25.900605193,0.999190250,,,,,
1775716552.608377,,,,,,,,,,,,,,,,360000000.000000000,424.000000000,25.903010096,89.162567401,0.999190250
1775716552.613080,,,,,,,,,,,365000000.000000000,424.000000000,0.480638642,26.070695310,0.999189727,,,,,
1775716552.613158,,,,,,,,,,,,,,,,365000000.000000000,424.000000000,26.074019740,89.017696219,0.999189727
1775716552.617717,,,,,,,,,,,370000000.000000000,424.000000000,0.554947049,26.236103393,0.999189459,,,,,
1775716552.617756,,,,,,,,,,,,,,,,370000000.000000000,424.000000000,26.240490471,88.874100039,0.999189459
1775716552.624308,,,,,,,,,,,375000000.000000000,424.000000000,0.629546862,26.396790276,0.999189474,,,,,
1775716552.624384,,,,,,,,,,,,,,,,375000000.000000000,424.000000000,26.402380774,88.731763782,0.999189474
1775716552.625736,625624983.000000000,1775716552.000000000,0.636668593,23.964994956,1.000000000,,,,,,,,,,,,,,,
1775716552.625790,,,,,,625624983.000000000,1775716552.000000000,23.971639229,88.567903816,1.000000000,,,,,,,,,,
1775716552.627922,,,,,,,,,,,380000000.000000000,424.000000000,0.704405568,26.552604591,0.999189766,,,,,
1775716552.627937,,,,,,,,,,,,,,,,380000000.000000000,424.000000000,26.559537172,88.590636726,0.999189766
1775716552.632048,,,,,,,,,,,385000000.000000000,424.000000000,0.779511040,26.703343914,0.999190333,,,,,
1775716552.632068,,,,,,,,,,,,,,,,385000000.000000000,424.000000000,26.711755671,88.450622287,0.999190333
1775716552.638422,,,,,,,,,,,390000000.000000000,424.000000000,0.854867693,26.848922064,0.999191204,,,,,
1775716552.638472,,,,,,,,,,,,,,,,390000000.000000000,424.000000000,26.858949095,88.311597696,0.999191204
1775716552.642357,,,,,,,,,,,395000000.000000000,424.000000000,0.930472666,26.989296331,0.999192408,,,,,
1775716552.642376,,,,,,,,,,,,,,,,395000000.000000000,424.000000000,27.001073862,88.173459268,0.999192408
1775716552.647042,,,,,,,,,,,400000000.000000000,424.000000000,1.006298250,27.124335374,0.999193938,,,,,
1775716552.647069,,,,,,,,,,,,,,,,400000000.000000000,424.000000000,27.137997433,88.036146082,0.999193938
1775716552.652804,,,,,,,,,,,405000000.000000000,424.000000000,1.082301652,27.253850697,0.999195795,,,,,
1775716552.652836,,,,,,,,,,,,,,,,405000000.000000000,424.000000000,27.269529859,87.899619830,0.999195795
1775716552.659053,,,,,,,,,,,410000000.000000000,424.000000000,1.158436720,27.377766762,0.999198006,,,,,
1775716552.659123,,,,,,,,,,,,,,,,410000000.000000000,424.000000000,27.395593986,87.763856050,0.999198006
1775716552.663322,,,,,,,,,,,415000000.000000000,424.000000000,1.234678615,27.496083283,0.999200605,,,,,
1775716552.663374,,,,,,,,,,,,,,,,415000000.000000000,424.000000000,27.516188504,87.628795961,0.999200605
1775716552.663923,663774903.000000000,1775716552.000000000,1.061036691,25.019481006,1.000000000,,,,,,,,,,,,,,,
1775716552.663951,,,,,,663774903.000000000,1775716552.000000000,25.036760505,87.727550267,1.000000000,,,,,,,,,,
1775716552.668451,,,,,,,,,,,420000000.000000000,424.000000000,1.311012303,27.608689265,0.999203582,,,,,
1775716552.668491,,,,,,,,,,,,,,,,420000000.000000000,424.000000000,27.631201993,87.494351752,0.999203582
1775716552.674101,,,,,,,,,,,425000000.000000000,424.000000000,1.387381234,27.715416270,0.999206933,,,,,
1775716552.674170,,,,,,,,,,,,,,,,425000000.000000000,424.000000000,27.740464417,87.360507410,0.999206933
1775716552.677186,,,,,,,,,,,430000000.000000000,424.000000000,1.463701970,27.816174709,0.999210677,,,,,
1775716552.677210,,,,,,,,,,,,,,,,430000000.000000000,424.000000000,27.843883438,87.227303596,0.999210677
1775716552.682052,,,,,,,,,,,435000000.000000000,424.000000000,1.539929297,27.910897106,0.999214835,,,,,
1775716552.682073,,,,,,,,,,,,,,,,435000000.000000000,424.000000000,27.941390071,87.094709180,0.999214835
1775716552.688244,,,,,,,,,,,440000000.000000000,424.000000000,1.615998014,27.999457738,0.999219402,,,,,
1775716552.688279,,,,,,,,,,,,,,,,440000000.000000000,424.000000000,28.032856405,86.962722430,0.999219402
1775716552.692458,,,,,,,,,,,445000000.000000000,424.000000000,1.691842099,28.081714112,0.999224379,,,,,
1775716552.692491,,,,,,,,,,,,,,,,445000000.000000000,424.000000000,28.118137696,86.831338494,0.999224379
1775716552.697864,,,,,,,,,,,450000000.000000000,424.000000000,1.767435331,28.157630905,0.999229787,,,,,
1775716552.697907,,,,,,,,,,,,,,,,450000000.000000000,424.000000000,28.197197851,86.700490457,0.999229787
1775716552.702649,,,,,,,,,,,455000000.000000000,424.000000000,1.842791261,28.227217106,0.999235647,,,,,
1775716552.702681,,,,,,,,,,,,,,,,455000000.000000000,424.000000000,28.270046971,86.570044462,0.999235647
1775716552.704861,704632881.000000000,1775716552.000000000,1.697356084,25.884626216,1.000000000,,,,,,,,,,,,,,,
1775716552.704924,,,,,,704632881.000000000,1775716552.000000000,25.926534647,86.505361073,1.000000000,,,,,,,,,,
1775716552.708461,,,,,,,,,,,460000000.000000000,424.000000000,1.917906898,28.290348105,0.999241940,,,,,
1775716552.708506,,,,,,,,,,,,,,,,460000000.000000000,424.000000000,28.336561519,86.439879712,0.999241940
1775716552.712168,,,,,,,,,,,465000000.000000000,424.000000000,1.992752417,28.346820613,0.999248651,,,,,
1775716552.712186,,,,,,,,,,,,,,,,465000000.000000000,424.000000000,28.396538555,86.309911771,0.999248651
1775716552.718732,,,,,,,,,,,470000000.000000000,424.000000000,2.067291622,28.396578931,0.999255798,,,,,
1775716552.718760,,,,,,,,,,,,,,,,470000000.000000000,424.000000000,28.449922194,86.180087958,0.999255798
1775716552.723494,,,,,,,,,,,475000000.000000000,424.000000000,2.141463528,28.439613281,0.999263397,,,,,
1775716552.723546,,,,,,,,,,,,,,,,475000000.000000000,424.000000000,28.496701099,86.050408190,0.999263397
1775716552.727560,,,,,,,,,,,480000000.000000000,424.000000000,2.215207063,28.475852546,0.999271435,,,,,
1775716552.727588,,,,,,,,,,,,,,,,480000000.000000000,424.000000000,28.536802711,85.920862188,0.999271435
1775716552.732957,,,,,,,,,,,485000000.000000000,424.000000000,2.288484594,28.505176589,0.999279903,,,,,
1775716552.733009,,,,,,,,,,,,,,,,485000000.000000000,424.000000000,28.570106914,85.791386936,0.999279903
1775716552.738588,,,,,,,,,,,490000000.000000000,424.000000000,2.361312782,28.527521261,0.999288803,,,,,
1775716552.738652,,,,,,,,,,,,,,,,490000000.000000000,424.000000000,28.596552679,85.661828064,0.999288803
1775716552.742885,742715561.000000000,1775716552.000000000,2.333256942,26.227192247,1.000000000,,,,,,,,,,,,,,,
1775716552.742940,,,,,,742715561.000000000,1775716552.000000000,26.304694672,85.272012181,1.000000000,,,,,,,,,,
1775716552.742990,,,,,,,,,,,495000000.000000000,424.000000000,2.433726222,28.542844117,0.999298138,,,,,
1775716552.743013,,,,,,,,,,,,,,,,495000000.000000000,424.000000000,28.616102142,85.532001908,0.999298138
1775716552.747135,,,,,,,,,,,500000000.000000000,424.000000000,2.505731687,28.551011616,0.999307885,,,,,
1775716552.747154,,,,,,,,,,,,,,,,500000000.000000000,424.000000000,28.628625629,85.401758064,0.999307885
1775716552.752572,,,,,,,,,,,505000000.000000000,424.000000000,2.577256066,28.551880566,0.999318029,,,,,
1775716552.752611,,,,,,,,,,,,,,,,505000000.000000000,424.000000000,28.633979283,85.271087601,0.999318029
1775716552.758655,,,,,,,,,,,510000000.000000000,424.000000000,2.648140332,28.545451924,0.999328578,,,,,
1775716552.758705,,,,,,,,,,,,,,,,510000000.000000000,424.000000000,28.632156970,85.140164399,0.999328578
1775716552.762204,,,,,,,,,,,515000000.000000000,424.000000000,2.718226303,28.531763523,0.999339536,,,,,
1775716552.762227,,,,,,,,,,,,,,,,515000000.000000000,424.000000000,28.623188469,85.009168483,0.999339536
1775716552.767858,,,,,,,,,,,520000000.000000000,424.000000000,2.787432770,28.510770793,0.999350881,,,,,
1775716552.767886,,,,,,,,,,,,,,,,520000000.000000000,424.000000000,28.607026063,84.878122966,0.999350881
1775716552.773983,,,,,,,,,,,525000000.000000000,424.000000000,2.855719213,28.482360973,0.999362591,,,,,
1775716552.774053,,,,,,,,,,,,,,,,525000000.000000000,424.000000000,28.583556890,84.746961338,0.999362591
1775716552.777768,,,,,,,,,,,530000000.000000000,424.000000000,2.923082006,28.446480223,0.999374657,,,,,
1775716552.777803,,,,,,,,,,,,,,,,530000000.000000000,424.000000000,28.552729430,84.615560596,0.999374657
1775716552.782097,,,,,,,,,,,535000000.000000000,424.000000000,2.989541335,28.403081231,0.999387065,,,,,
1775716552.782115,,,,,,,,,,,,,,,,535000000.000000000,424.000000000,28.514500731,84.483754345,0.999387065
1775716552.788850,,,,,,,,,,,540000000.000000000,424.000000000,3.055098269,28.352086593,0.999399789,,,,,
1775716552.788965,,,,,,,,,,,,,,,,540000000.000000000,424.000000000,28.468796978,84.351402715,0.999399789
1775716552.789076,788966573.000000000,1775716552.000000000,2.756881233,26.227192247,1.000000000,,,,,,,,,,,,,,,
1775716552.789099,,,,,,788966573.000000000,1775716552.000000000,26.335337892,84.417394243,1.000000000,,,,,,,,,,
1775716552.792407,,,,,,,,,,,545000000.000000000,424.000000000,3.119699977,28.293427041,0.999412811,,,,,
1775716552.792435,,,,,,,,,,,,,,,,545000000.000000000,424.000000000,28.415548612,84.218464759,0.999412811
1775716552.797945,,,,,,,,,,,550000000.000000000,424.000000000,3.183282324,28.227123106,0.999426121,,,,,
1775716552.797981,,,,,,,,,,,,,,,,550000000.000000000,424.000000000,28.354774240,84.084940860,0.999426121
1775716552.802711,,,,,,,,,,,555000000.000000000,424.000000000,3.245793065,28.153227432,0.999439703,,,,,
1775716552.802742,,,,,,,,,,,,,,,,555000000.000000000,424.000000000,28.286525051,83.950818093,0.999439703
1775716552.807865,,,,,,,,,,,560000000.000000000,424.000000000,3.307186633,28.071708319,0.999453526,,,,,
1775716552.807918,,,,,,,,,,,,,,,,560000000.000000000,424.000000000,28.210768945,83.816050581,0.999453526
1775716552.812979,,,,,,,,,,,565000000.000000000,424.000000000,3.367451532,27.982453821,0.999467553,,,,,
1775716552.813035,,,,,,,,,,,,,,,,565000000.000000000,424.000000000,28.127397143,83.680506714,0.999467553
1775716552.817770,,,,,,,,,,,570000000.000000000,424.000000000,3.426588974,27.885451657,0.999481765,,,,,
1775716552.817802,,,,,,,,,,,,,,,,570000000.000000000,424.000000000,28.036401060,83.544054034,0.999481765
1775716552.822922,,,,,,,,,,,575000000.000000000,424.000000000,3.484600251,27.780754032,0.999496145,,,,,
1775716552.822973,,,,,,,,,,,,,,,,575000000.000000000,424.000000000,27.937836274,83.406575510,0.999496145
1775716552.823837,823694074.000000000,1775716552.000000000,3.180204096,25.884626216,1.000000000,,,,,,,,,,,,,,,
1775716552.823876,,,,,,823694074.000000000,1775716552.000000000,26.031486549,83.467863312,1.000000000,,,,,,,,,,
1775716552.827680,,,,,,,,,,,580000000.000000000,424.000000000,3.541479317,27.668354814,0.999510658,,,,,
1775716552.827712,,,,,,,,,,,,,,,,580000000.000000000,424.000000000,27.831700114,83.267950481,0.999510658
1775716552.832221,,,,,,,,,,,585000000.000000000,424.000000000,3.597200147,27.548154516,0.999525260,,,,,
1775716552.832237,,,,,,,,,,,,,,,,585000000.000000000,424.000000000,27.717895852,83.128066553,0.999525260
1775716552.838128,,,,,,,,,,,590000000.000000000,424.000000000,3.651696505,27.419816809,0.999539886,,,,,
1775716552.838192,,,,,,,,,,,,,,,,590000000.000000000,424.000000000,27.596088767,82.986813044,0.999539886
1775716552.842568,,,,,,,,,,,595000000.000000000,424.000000000,3.704897841,27.283038875,0.999554493,,,,,
1775716552.842607,,,,,,,,,,,,,,,,595000000.000000000,424.000000000,27.465977089,82.844087639,0.999554493
1775716552.847952,,,,,,,,,,,600000000.000000000,424.000000000,3.756809089,27.137480795,0.999569039,,,,,
1775716552.847987,,,,,,,,,,,,,,,,600000000.000000000,424.000000000,27.327230130,82.699621479,0.999569039
1775716552.853133,,,,,,,,,,,605000000.000000000,424.000000000,3.807456291,26.982780040,0.999583484,,,,,
1775716552.853206,,,,,,,,,,,,,,,,605000000.000000000,424.000000000,27.179497953,82.553082840,0.999583484
1775716552.857625,,,,,,,,,,,610000000.000000000,424.000000000,3.856854780,26.818434030,0.999597777,,,,,
1775716552.857669,,,,,,,,,,,,,,,,610000000.000000000,424.000000000,27.022292370,82.404097446,0.999597777
1775716552.863311,,,,,,,,,,,615000000.000000000,424.000000000,3.905013510,26.644102022,0.999611892,,,,,
1775716552.863378,,,,,,,,,,,,,,,,615000000.000000000,424.000000000,26.855285708,82.252333952,0.999611892
1775716552.865502,865427302.000000000,1775716552.000000000,3.603179692,25.019481006,1.000000000,,,,,,,,,,,,,,,
1775716552.865534,,,,,,865427302.000000000,1775716552.000000000,25.218114696,82.316018170,1.000000000,,,,,,,,,,
1775716552.868199,,,,,,,,,,,620000000.000000000,424.000000000,3.951829326,26.459566717,0.999625810,,,,,
1775716552.868222,,,,,,,,,,,,,,,,620000000.000000000,424.000000000,26.678260895,82.097704890,0.999625810
1775716552.874085,,,,,,,,,,,625000000.000000000,424.000000000,3.997156964,26.264652112,0.999639513,,,,,
1775716552.874141,,,,,,,,,,,,,,,,625000000.000000000,424.000000000,26.491036704,81.940210014,0.999639513
1775716552.877374,,,,,,,,,,,630000000.000000000,424.000000000,4.040894368,26.059015929,0.999652965,,,,,
1775716552.877387,,,,,,,,,,,,,,,,630000000.000000000,424.000000000,26.293272312,81.779694636,0.999652965
1775716552.882107,,,,,,,,,,,635000000.000000000,424.000000000,4.082995421,25.842356253,0.999666146,,,,,
1775716552.882126,,,,,,,,,,,,,,,,635000000.000000000,424.000000000,26.084673369,81.615887980,0.999666146
1775716552.889016,,,,,,,,,,,640000000.000000000,424.000000000,4.123447492,25.614512744,0.999679043,,,,,
1775716552.889121,,,,,,,,,,,,,,,,640000000.000000000,424.000000000,25.865089622,81.448482406,0.999679043
1775716552.893803,,,,,,,,,,,645000000.000000000,424.000000000,4.162232488,25.375391615,0.999691642,,,,,
1775716552.893873,,,,,,,,,,,,,,,,645000000.000000000,424.000000000,25.634436418,81.277186254,0.999691642
1775716552.897532,,,,,,,,,,,650000000.000000000,424.000000000,4.199346457,25.124792686,0.999703918,,,,,
1775716552.897562,,,,,,,,,,,,,,,,650000000.000000000,424.000000000,25.392526882,81.101615627,0.999703918
1775716552.904498,,,,,,,,,,,655000000.000000000,424.000000000,4.234764545,24.862589001,0.999715851,,,,,
1775716552.904549,,,,,,,,,,,,,,,,655000000.000000000,424.000000000,25.139244521,80.921432036,0.999715851
1775716552.907925,,,,,,,,,,,660000000.000000000,424.000000000,4.268474090,24.588741086,0.999727426,,,,,
1775716552.907982,,,,,,,,,,,,,,,,660000000.000000000,424.000000000,24.874561197,80.736280779,0.999727426
1775716552.910490,910328067.000000000,1775716552.000000000,4.025762404,23.609587374,1.000000000,,,,,,,,,,,,,,,
1775716552.910552,,,,,,910328067.000000000,1775716552.000000000,23.879851909,80.852919615,1.000000000,,,,,,,,,,
1775716552.912823,,,,,,,,,,,665000000.000000000,424.000000000,4.300487678,24.303254726,0.999738629,,,,,
1775716552.912865,,,,,,,,,,,,,,,,665000000.000000000,424.000000000,24.598497483,80.545744816,0.999738629
1775716552.917692,,,,,,,,,,,670000000.000000000,424.000000000,4.330812163,24.005961983,0.999749423,,,,,
1775716552.917746,,,,,,,,,,,,,,,,670000000.000000000,424.000000000,24.310903845,80.349311379,0.999749423
1775716552.923141,,,,,,,,,,,675000000.000000000,424.000000000,4.359471697,23.696761412,0.999759783,,,,,
1775716552.923196,,,,,,,,,,,,,,,,675000000.000000000,424.000000000,24.011700106,80.146416015,0.999759783
1775716552.927211,,,,,,,,,,,680000000.000000000,424.000000000,4.386437805,23.375797636,0.999769692,,,,,
1775716552.927243,,,,,,,,,,,,,,,,680000000.000000000,424.000000000,23.701041370,79.936681466,0.999769692
1775716552.932437,,,,,,,,,,,685000000.000000000,424.000000000,4.411662404,23.043271914,0.999779132,,,,,
1775716552.932472,,,,,,,,,,,,,,,,685000000.000000000,424.000000000,23.379135850,79.719770777,0.999779132
1775716552.938384,,,,,,,,,,,690000000.000000000,424.000000000,4.435120617,22.699153077,0.999788065,,,,,
1775716552.938452,,,,,,,,,,,,,,,,690000000.000000000,424.000000000,23.045968235,79.495146337,0.999788065
1775716552.942240,942081335.000000000,1775716552.000000000,4.236892244,21.620552143,1.000000000,,,,,,,,,,,,,,,
1775716552.942278,,,,,,942081335.000000000,1775716552.000000000,21.959646391,79.412678682,1.000000000,,,,,,,,,,
1775716552.942719,,,,,,,,,,,695000000.000000000,424.000000000,4.456772558,22.343477792,0.999796457,,,,,
1775716552.942736,,,,,,,,,,,,,,,,695000000.000000000,424.000000000,22.701588575,79.262288862,0.999796457
1775716552.947238,,,,,,,,,,,700000000.000000000,424.000000000,4.476622728,21.976443035,0.999804285,,,,,
1775716552.947258,,,,,,,,,,,,,,,,700000000.000000000,424.000000000,22.346211915,79.020606681,0.999804285
1775716552.953227,,,,,,,,,,,705000000.000000000,424.000000000,4.494733420,21.598312341,0.999811521,,,,,
1775716552.953257,,,,,,,,,,,,,,,,705000000.000000000,424.000000000,21.980129568,78.769349815,0.999811521
1775716552.958432,,,,,,,,,,,710000000.000000000,424.000000000,4.511248883,21.209151643,0.999818126,,,,,
1775716552.958542,,,,,,,,,,,,,,,,710000000.000000000,424.000000000,21.603457137,78.507383785,0.999818126
1775716552.962938,,,,,,,,,,,715000000.000000000,424.000000000,4.526249601,20.809137953,0.999824063,,,,,
1775716552.962983,,,,,,,,,,,,,,,,715000000.000000000,424.000000000,21.216412488,78.233694859,0.999824063
1775716552.967551,,,,,,,,,,,720000000.000000000,424.000000000,4.539752147,20.398641027,0.999829304,,,,,
1775716552.967587,,,,,,,,,,,,,,,,720000000.000000000,424.000000000,20.819393616,77.947455405,0.999829304
1775716552.974247,,,,,,,,,,,725000000.000000000,424.000000000,4.551683146,19.978042223,0.999833825,,,,,
1775716552.974302,,,,,,,,,,,,,,,,725000000.000000000,424.000000000,20.412795490,77.648002776,0.999833825
1775716552.977059,,,,,,,,,,,730000000.000000000,424.000000000,4.561942513,19.547377472,0.999837581,,,,,
1775716552.977082,,,,,,,,,,,,,,,,730000000.000000000,424.000000000,19.996673704,77.334443432,0.999837581
1775716552.982293,,,,,,,,,,,735000000.000000000,424.000000000,4.570460878,19.106828332,0.999840533,,,,,
1775716552.982311,,,,,,,,,,,,,,,,735000000.000000000,424.000000000,19.571233431,77.005790503,0.999840533
1775716552.988625,,,,,,,,,,,740000000.000000000,424.000000000,4.577244464,18.656907371,0.999842668,,,,,
1775716552.988697,,,,,,,,,,,,,,,,740000000.000000000,424.000000000,19.137018471,76.660971232,0.999842668
1775716552.990446,990318442.000000000,1775716552.000000000,4.447906875,18.818129555,1.000000000,,,,,,,,,,,,,,,
1775716552.990479,,,,,,990318442.000000000,1775716552.000000000,19.266871058,77.141909827,1.000000000,,,,,,,,,,
1775716552.993435,,,,,,,,,,,745000000.000000000,424.000000000,4.582338669,18.198209918,0.999843976,,,,,
1775716552.993501,,,,,,,,,,,,,,,,745000000.000000000,424.000000000,18.694664188,76.298754543,0.999843976
1775716552.997743,,,,,,,,,,,750000000.000000000,424.000000000,4.585852590,17.730909824,0.999844429,,,,,
1775716552.997778,,,,,,,,,,,,,,,,750000000.000000000,424.000000000,18.244417853,75.917255874,0.999844429
1775716553.002524,,,,,,,,,,,755000000.000000000,424.000000000,4.587844239,17.255250462,0.999844001,,,,,
1775716553.002558,,,,,,,,,,,,,,,,755000000.000000000,424.000000000,17.786591699,75.514579359,0.999844001
1775716553.007812,,,,,,,,,,,760000000.000000000,424.000000000,4.588362750,16.771703720,0.999842685,,,,,
1775716553.007866,,,,,,,,,,,,,,,,760000000.000000000,424.000000000,17.321724507,75.088829905,0.999842685
1775716553.012420,,,,,,,,,,,765000000.000000000,424.000000000,4.587396898,16.280822657,0.999840484,,,,,
1775716553.012449,,,,,,,,,,,,,,,,765000000.000000000,424.000000000,16.850426560,74.638161622,0.999840484
1775716553.018188,,,,,,,,,,,770000000.000000000,424.000000000,4.584862399,15.782782577,0.999837385,,,,,
1775716553.018220,,,,,,,,,,,,,,,,770000000.000000000,424.000000000,16.372935320,74.160376357,0.999837385
1775716553.022621,22305339.000000000,1775716553.000000000,4.447906875,15.722688897,1.000000000,,,,,,,,,,,,,,,
1775716553.022716,,,,,,22305339.000000000,1775716553.000000000,16.281176770,74.553683632,1.000000000,,,,,,,,,,
1775716553.023912,,,,,,,,,,,775000000.000000000,424.000000000,4.580737337,15.277962599,0.999833388,,,,,
1775716553.023955,,,,,,,,,,,,,,,,775000000.000000000,424.000000000,15.889708037,73.652975587,0.999833388
1775716553.027197,,,,,,,,,,,780000000.000000000,424.000000000,4.575128835,14.767027343,0.999828518,,,,,
1775716553.027217,,,,,,,,,,,,,,,,780000000.000000000,424.000000000,15.401519590,73.113000574,0.999828518
1775716553.032446,,,,,,,,,,,785000000.000000000,424.000000000,4.568214718,14.250694430,0.999822815,,,,,
1775716553.032458,,,,,,,,,,,,,,,,785000000.000000000,424.000000000,14.909229955,72.536940868,0.999822815
1775716553.038590,,,,,,,,,,,790000000.000000000,424.000000000,4.560104035,13.729141974,0.999816292,,,,,
1775716553.038654,,,,,,,,,,,,,,,,790000000.000000000,424.000000000,14.413188788,71.920422339,0.999816292
1775716553.042717,,,,,,,,,,,795000000.000000000,424.000000000,4.550792907,13.202622063,0.999808961,,,,,
1775716553.042741,,,,,,,,,,,,,,,,795000000.000000000,424.000000000,13.913808304,71.258958172,0.999808961
1775716553.047530,,,,,,,,,,,800000000.000000000,424.000000000,4.540210357,12.671644683,0.999800859,,,,,
1775716553.047553,,,,,,,,,,,,,,,,800000000.000000000,424.000000000,13.411746944,70.548027405,0.999800859
1775716553.053252,,,,,,,,,,,805000000.000000000,424.000000000,4.528248959,12.136803302,0.999792038,,,,,
1775716553.053293,,,,,,,,,,,,,,,,805000000.000000000,424.000000000,12.907751701,69.782735452,0.999792038
1775716553.059209,,,,,,,,,,,810000000.000000000,424.000000000,4.514883563,11.598321682,0.999782534,,,,,
1775716553.059283,,,,,,,,,,,,,,,,810000000.000000000,424.000000000,12.402278234,68.956499665,0.999782534
1775716553.062504,62301981.000000000,1775716553.000000000,4.447906875,11.922103210,1.000000000,,,,,,,,,,,,,,,
1775716553.062558,,,,,,62301981.000000000,1775716553.000000000,12.680894319,69.775140569,1.000000000,,,,,,,,,,
1775716553.062659,,,,,,,,,,,815000000.000000000,424.000000000,4.500176919,11.056666168,0.999772390,,,,,
1775716553.062683,,,,,,,,,,,,,,,,815000000.000000000,424.000000000,11.896078694,68.061705656,0.999772390
1775716553.067900,,,,,,,,,,,820000000.000000000,424.000000000,4.484300936,10.512526408,0.999761674,,,,,
1775716553.067959,,,,,,,,,,,,,,,,820000000.000000000,424.000000000,11.390200600,67.089465445,0.999761674
1775716553.073993,,,,,,,,,,,825000000.000000000,424.000000000,4.467408727,9.966522912,0.999750459,,,,,
1775716553.074032,,,,,,,,,,,,,,,,825000000.000000000,424.000000000,10.885682787,66.029461581,0.999750459
1775716553.078127,,,,,,,,,,,830000000.000000000,424.000000000,4.449607945,9.418667696,0.999738792,,,,,
1775716553.078158,,,,,,,,,,,,,,,,830000000.000000000,424.000000000,10.383072337,64.868506777,0.999738792
1775716553.083619,,,,,,,,,,,835000000.000000000,424.000000000,4.430910115,8.869164182,0.999726703,,,,,
1775716553.083665,,,,,,,,,,,,,,,,835000000.000000000,424.000000000,9.883154891,63.591943005,0.999726703
1775716553.089019,,,,,,,,,,,840000000.000000000,424.000000000,4.411152346,8.318513133,0.999714250,,,,,
1775716553.089116,,,,,,,,,,,,,,,,840000000.000000000,424.000000000,9.387018051,62.184183939,0.999714250
1775716553.092870,,,,,,,,,,,845000000.000000000,424.000000000,4.390181293,7.767360922,0.999701507,,,,,
1775716553.092891,,,,,,,,,,,,,,,,845000000.000000000,424.000000000,8.895997909,60.627273658,0.999701507
1775716553.097391,,,,,,,,,,,850000000.000000000,424.000000000,4.368027217,7.215876493,0.999688531,,,,,
1775716553.097407,,,,,,,,,,,,,,,,850000000.000000000,424.000000000,8.411255694,58.897374297,0.999688531
1775716553.102931,,,,,,,,,,,855000000.000000000,424.000000000,4.344820046,6.664471390,0.999675366,,,,,
1775716553.102967,,,,,,,,,,,,,,,,855000000.000000000,424.000000000,7.934434129,56.966397018,0.999675366
1775716553.106000,105770134.000000000,1775716553.000000000,4.447906875,7.803949524,1.000000000,,,,,,,,,,,,,,,
1775716553.106079,,,,,,105770134.000000000,1775716553.000000000,8.955550761,60.422161319,1.000000000,,,,,,,,,,
1775716553.108361,,,,,,,,,,,860000000.000000000,424.000000000,4.320788899,6.113683014,0.999662079,,,,,
1775716553.108394,,,,,,,,,,,,,,,,860000000.000000000,424.000000000,7.467612712,54.801080855,0.999662079
1775716553.112035,,,,,,,,,,,865000000.000000000,424.000000000,4.296059109,5.563998225,0.999648736,,,,,
1775716553.112056,,,,,,,,,,,,,,,,865000000.000000000,424.000000000,7.013117126,52.362951547,0.999648736
1775716553.117936,,,,,,,,,,,870000000.000000000,424.000000000,4.270555765,5.015314674,0.999635379,,,,,
1775716553.117996,,,,,,,,,,,,,,,,870000000.000000000,424.000000000,6.573118783,49.605424368,0.999635379
1775716553.124475,,,,,,,,,,,875000000.000000000,424.000000000,4.244186913,4.467799954,0.999622025,,,,,
1775716553.124535,,,,,,,,,,,,,,,,875000000.000000000,424.000000000,6.150539105,46.475978875,0.999622025
1775716553.127231,,,,,,,,,,,880000000.000000000,424.000000000,4.216874885,3.921886121,0.999608714,,,,,
1775716553.127246,,,,,,,,,,,,,,,,880000000.000000000,424.000000000,5.749145738,42.917245718,0.999608714
1775716553.132826,,,,,,,,,,,885000000.000000000,424.000000000,4.188607666,3.378059340,0.999595502,,,,,
1775716553.132871,,,,,,,,,,,,,,,,885000000.000000000,424.000000000,5.373523037,38.868268501,0.999595502
1775716553.138990,,,,,,,,,,,890000000.000000000,424.000000000,4.159504567,2.836225115,0.999582431,,,,,
1775716553.139070,,,,,,,,,,,,,,,,890000000.000000000,424.000000000,5.028850171,34.263641856,0.999582431
1775716553.142883,,,,,,,,,,,895000000.000000000,424.000000000,4.129742092,2.296600977,0.999569509,,,,,
1775716553.142932,,,,,,,,,,,,,,,,895000000.000000000,424.000000000,4.721517811,29.049832736,0.999569509
1775716553.144091,143970747.000000000,1775716553.000000000,4.447906875,3.603179692,1.000000000,,,,,,,,,,,,,,,
1775716553.144122,,,,,,143970747.000000000,1775716553.000000000,5.715151620,38.990994043,1.000000000,,,,,,,,,,
1775716553.147308,,,,,,,,,,,900000000.000000000,424.000000000,4.099368800,1.759563475,0.999556766,,,,,
1775716553.147333,,,,,,,,,,,,,,,,900000000.000000000,424.000000000,4.458678965,23.201425553,0.999556766
1775716553.152499,,,,,,,,,,,905000000.000000000,424.000000000,4.068313603,1.225446841,0.999544238,,,,,
1775716553.152545,,,,,,,,,,,,,,,,905000000.000000000,424.000000000,4.247684923,16.739020595,0.999544238
1775716553.157767,,,,,,,,,,,910000000.000000000,424.000000000,4.036518218,0.693961966,0.999531952,,,,,
1775716553.157818,,,,,,,,,,,,,,,,910000000.000000000,424.000000000,4.095348999,9.739613350,0.999531952
1775716553.161963,,,,,,,,,,,915000000.000000000,424.000000000,4.003998705,0.165182635,0.999519892,,,,,
1775716553.161979,,,,,,,,,,,,,,,,915000000.000000000,424.000000000,4.007382398,2.358528422,0.999519892
1775716553.167224,,,,,,,,,,,920000000.000000000,424.000000000,3.970781411,-0.360530513,0.999508070,,,,,
1775716553.167250,,,,,,,,,,,,,,,,920000000.000000000,424.000000000,3.987011013,-5.179799065,0.999508070
1775716553.173693,,,,,,,,,,,925000000.000000000,424.000000000,3.936872101,-0.882765797,0.999496517,,,,,
1775716553.173741,,,,,,,,,,,,,,,,925000000.000000000,424.000000000,4.034023251,-12.620106390,0.999496517
1775716553.179390,,,,,,,,,,,930000000.000000000,424.000000000,3.902311357,-1.401732326,0.999485264,,,,,
1775716553.179450,,,,,,,,,,,,,,,,930000000.000000000,424.000000000,4.144968709,-19.734008774,0.999485264
1775716553.182911,,,,,,,,,,,935000000.000000000,424.000000000,3.867159907,-1.917364664,0.999474293,,,,,
1775716553.182976,,,,,,,,,,,,,,,,935000000.000000000,424.000000000,4.313808548,-26.346393373,0.999474293
1775716553.186931,186688903.000000000,1775716553.000000000,4.025762404,-0.424455434,1.000000000,,,,,,,,,,,,,,,
1775716553.186995,,,,,,186688903.000000000,1775716553.000000000,4.047930618,-6.009005957,1.000000000,,,,,,,,,,
1775716553.188389,,,,,,,,,,,940000000.000000000,424.000000000,3.831419432,-2.429424926,0.999463605,,,,,
1775716553.188425,,,,,,,,,,,,,,,,940000000.000000000,424.000000000,4.532857446,-32.354826446,0.999463605
1775716553.192655,,,,,,,,,,,945000000.000000000,424.000000000,3.795035223,-2.937696592,0.999453217,,,,,
1775716553.192698,,,,,,,,,,,,,,,,945000000.000000000,424.000000000,4.793958898,-37.726794356,0.999453217
1775716553.197032,,,,,,,,,,,950000000.000000000,424.000000000,3.757922723,-3.442614185,0.999443154,,,,,
1775716553.197055,,,,,,,,,,,,,,,,950000000.000000000,424.000000000,5.089779653,-42.486052184,0.999443154
1775716553.202622,,,,,,,,,,,955000000.000000000,424.000000000,3.720128267,-3.944219418,0.999433375,,,,,
1775716553.202649,,,,,,,,,,,,,,,,955000000.000000000,424.000000000,5.413792901,-46.679741930,0.999433375
1775716553.207804,,,,,,,,,,,960000000.000000000,424.000000000,3.681746714,-4.442224850,0.999423861,,,,,
1775716553.207842,,,,,,,,,,,,,,,,960000000.000000000,424.000000000,5.760252346,-50.365525569,0.999423861
1775716553.212438,,,,,,,,,,,965000000.000000000,424.000000000,3.642886258,-4.936310924,0.999414627,,,,,
1775716553.212467,,,,,,,,,,,,,,,,965000000.000000000,424.000000000,6.124309902,-53.604431410,0.999414627
